ID,City,Latitude,Longitude
1,Adak,55.999722,-161.207778
2,Akiachak,60.891854,-161.39233
3,Akiak,60.890632,-161.199325
4,Akutan,54.143012,-165.785368
5,Alakanuk,62.746967,-164.60228
6,Aleknagik,59.269688,-158.619882
7,Allakaket,66.543197,-152.712155
8,Ambler,67.46951,-156.455652
9,Anaktuvuk Pass,68.11878,-151.679005
10,Anchor Point,59.788818,-151.732933
11,Anchorage,61.211571,-149.876077
12,Anderson,64.300693,-149.1718
13,Angoon,57.569832,-134.371052
14,Aniak,61.691648,-157.758502
15,Anvik,62.830913,-160.130441
16,Arctic Village,68.077395,-145.423115
17,Atka,52.199167,-174.213333
18,Atqasuk,71.290556,-156.788611
19,Auke Bay,58.3833,-134.6597
20,Barrow,71.234637,-156.817409
21,Beaver,66.33883,-147.279803
22,Bethel,60.832389,-161.824053
23,Bettles Field,67.100495,-151.062414
24,Big Lake,61.5842,-149.4401
25,Brevig Mission,65.334187,-166.478578
26,Buckland,65.981052,-161.131676
27,Cantwell,63.395458,-148.89735
28,Central,65.468058,-144.74886
29,Chalkyitsik,66.719,-143.638121
30,Chefornak,60.153746,-164.210294
31,Chevak,61.583982,-164.776457
32,Chicken,64.075,-141.933333
33,Chignik,56.301639,-158.415696
34,Chignik Lagoon,56.251277,-158.673528
35,Chignik Lake,56.255556,-158.7625
36,Chitina,61.516667,-144.436667
37,Chugiak,61.409802,-149.453736
38,Circle,65.824542,-144.08262
39,Clam Gulch,60.201603,-151.422628
40,Clarks Point,58.84921,-158.451241
41,Clear,64.418121,-149.139885
42,Coffman Cove,55.342222,-131.646111
43,Cold Bay,55.610952,-161.942941
44,Cooper Landing,60.476692,-149.823514
45,Copper Center,61.91581,-144.97793
46,Cordova,60.102558,-147.943316
47,Craig,55.47317,-133.117081
48,Crooked Creek,61.818072,-158.002483
49,Deering,66.062265,-162.711951
50,Delta Junction,64.005426,-145.613611
51,Denali National Park,63.516075,-149.539532
52,Dillingham,59.059279,-158.973533
53,Douglas,58.275597,-134.395041
54,Dutch Harbor,53.362757,-167.510656
55,Eagle,64.783333,-141.2
56,Eagle River,61.311357,-149.508515
57,Eek,60.215058,-162.032341
58,Egegik,58.206174,-157.342202
59,Eielson Afb,64.67352,-147.08051
60,Ekwok,59.362792,-157.478211
61,Elfin Cove,58.195,-136.358333
62,Elim,64.621662,-162.260371
63,Elmendorf Afb,61.251531,-149.812667
64,Emmonak,62.827404,-164.131298
65,Ester,64.846667,-148.016667
66,Fairbanks,64.840238,-147.710431
67,False Pass,54.841028,-163.436845
68,Fort Greely,64.036667,-145.733333
69,Fort Richardson,61.275256,-149.675454
70,Fort Wainwright,64.828303,-147.655673
71,Fort Yukon,66.520744,-145.306439
72,Gakona,62.654744,-143.568393
73,Galena,64.760784,-156.797701
74,Gambell,63.776555,-171.701685
75,Girdwood,60.9425,-149.166389
76,Glennallen,62.103895,-145.661684
77,Goodnews Bay,59.085008,-161.587146
78,Grayling,63.372013,-159.404907
79,Gustavus,58.42835,-135.761542
80,Haines,59.251886,-135.542032
81,Healy,63.917123,-149.011128
82,Holy Cross,62.192584,-159.825092
83,Homer,59.665495,-151.462644
84,Hoonah,58.032237,-135.558435
85,Hooper Bay,61.537157,-165.891045
86,Hope,60.92,-149.641667
87,Houston,61.633611,-149.841111
88,Hughes,66.038246,-154.26443
89,Huslia,65.689918,-156.291976
90,Hydaburg,55.137406,-132.633175
91,Hyder,55.925867,-130.124915
92,Iliamna,59.564836,-155.462556
93,Indian,60.9804,-149.4917
94,Juneau,58.362767,-134.529429
95,Kake,56.975833,-133.947222
96,Kaktovik,70.042889,-143.631329
97,Kalskag,61.541006,-160.3261
98,Kaltag,64.330452,-158.724251
99,Karluk,57.57,-154.458333
100,Kasigluk,60.895556,-162.520556
101,Kasilof,60.316365,-151.28958
102,Kenai,60.614467,-151.254556
103,Ketchikan,55.372028,-131.683175
104,Kiana,67.18026,-158.152204
105,King Cove,55.062848,-162.305561
106,King Salmon,58.724264,-156.641603
107,Kipnuk,59.923204,-164.101013
108,Kivalina,67.665859,-163.733617
109,Klawock,55.552611,-133.055503
110,Kobuk,66.912253,-157.066864
111,Kodiak,57.781967,-152.500169
112,Kongiganak,60.9888,-149.4116
113,Kotlik,63.029471,-163.554153
114,Kotzebue,66.846459,-162.126493
115,Koyuk,64.931668,-161.149957
116,Koyukuk,64.883333,-157.7
117,Kwethluk,60.771814,-161.38849
118,Kwigillingok,59.881022,-162.984938
119,Lake Minchumina,63.903884,-152.430081
120,Larsen Bay,57.538333,-153.98
121,Levelock,59.371395,-154.976815
122,Lower Kalskag,61.51377,-160.359966
123,Manley Hot Springs,65.02058,-150.573267
124,Manokotak,59.009559,-158.989699
125,Marshall,61.837087,-161.7394
126,Mc Grath,62.967153,-155.585153
127,Mekoryuk,60.365679,-166.283583
128,Metlakatla,55.121491,-131.579001
129,Meyers Chuck,55.741667,-132.253333
130,Minto,65.058399,-149.691186
131,Moose Pass,60.85852,-149.255911
132,Mountain Village,62.158913,-163.883822
133,Naknek,58.885699,-156.705405
134,Napakiak,60.663758,-161.738144
135,Nenana,64.557656,-149.086744
136,New Stuyahok,59.593533,-157.297205
137,Nightmute,60.479444,-164.723889
138,Nikiski,60.690278,-151.288889
139,Nikolai,63.001603,-154.381247
140,Nikolski,52.988337,-168.788427
141,Ninilchik,60.010833,-151.639604
142,Noatak,66.97553,-160.509453
143,Nome,64.505775,-165.310667
144,Nondalton,60.030837,-154.731675
145,Noorvik,66.836353,-161.044132
146,North Pole,64.78049,-147.369353
147,Northway,62.964167,-141.908611
148,Nuiqsut,70.192737,-150.997119
149,Nulato,64.778024,-157.991353
150,Nunam Iqua,62.509167,-164.453333
151,Nunapitchuk,60.896944,-162.459444
152,Old Harbor,57.202778,-153.303889
153,Ouzinkie,57.925,-152.491667
154,Palmer,61.613814,-149.065323
155,Pedro Bay,59.92238,-153.821856
156,Pelican,57.960833,-136.2275
157,Perryville,55.945289,-159.259333
158,Petersburg,56.827134,-133.160683
159,Pilot Point,57.595193,-157.449272
160,Pilot Station,61.946159,-162.874716
161,Platinum,58.63364,-162.043201
162,Point Baker,56.307858,-133.376372
163,Point Hope,68.312058,-166.72618
164,Point Lay,69.705626,-162.906148
165,Port Alexander,57.05,-135.333333
166,Port Alsworth,60.636416,-154.433803
167,Port Heiden,56.964333,-158.566367
168,Port Lions,57.866667,-152.883333
169,Prudhoe Bay,70.070057,-148.559636
170,Quinhagak,59.738057,-161.874938
171,Rampart,65.383627,-150.011201
172,Red Devil,61.735389,-157.195969
173,Ruby,64.720062,-155.503872
174,Russian Mission,61.591302,-161.558413
175,Saint George Island,56.60324,-169.547257
176,Saint Marys,62.054106,-163.205263
177,Saint Michael,63.47759,-162.109141
178,Saint Paul Island,57.178697,-170.293408
179,Salcha,64.50905,-146.952974
180,Sand Point,55.319236,-160.491435
181,Savoonga,63.679737,-170.470908
182,Scammon Bay,61.845019,-165.581945
183,Selawik,65.713537,-158.534287
184,Seldovia,59.436667,-151.708333
185,Seward,60.132874,-149.39849
186,Shageluk,62.661092,-159.52816
187,Shaktoolik,64.375498,-161.174589
188,Shishmaref,66.230562,-166.137276
189,Shungnak,66.958141,-157.613496
190,Sitka,57.051436,-135.316569
191,Skagway,59.468471,-135.301794
192,Skwentna,61.958333,-151.181667
193,Sleetmute,61.634555,-157.118284
194,Soldotna,60.481778,-151.13582
195,South Naknek,58.736221,-156.850289
196,Stebbins,63.478468,-162.227355
197,Sterling,60.520373,-150.849792
198,Stevens Village,65.995894,-149.118286
199,Sutton,61.796667,-148.462778
200,Takotna,62.948889,-155.566389
201,Talkeetna,62.260516,-150.110097
202,Tanacross,63.385278,-143.346389
203,Tanana,65.156483,-152.103747
204,Tatitlek,60.864722,-146.678611
205,Teller,65.240164,-166.3833
206,Tenakee Springs,57.78,-135.216667
207,Thorne Bay,55.66086,-132.513815
208,Togiak,59.066667,-160.4
209,Tok,63.333333,-142.983333
210,Toksook Bay,60.537,-165.097
211,Trapper Creek,61.441361,-150.284455
212,Tuluksak,61.108848,-160.938924
213,Tuntutuliak,60.8438,-161.6372
214,Tununak,60.539322,-165.097464
215,Two Rivers,64.871944,-147.038056
216,Tyonek,61.117929,-151.348495
217,Unalakleet,63.883478,-160.788365
218,Unalaska,53.887114,-166.519855
219,Valdez,60.895044,-146.195628
220,Venetie,67.010446,-146.413723
221,Wainwright,70.620064,-160.012532
222,Wales,65.688212,-168.520521
223,Ward Cove,55.408333,-131.725
224,Wasilla,61.5814,-149.4394
225,White Mountain,64.702791,-163.42185
226,Whittier,60.775,-148.683333
227,Willow,61.771511,-150.188891
228,Wrangell,56.433524,-132.352918
229,Yakutat,59.620211,-139.778858
230,Abbeville,31.575479,-85.279044
231,Abernant,33.290278,-87.198056
232,Adamsville,33.588437,-86.959727
233,Addison,34.205571,-87.194766
234,Adger,33.434277,-87.167455
235,Akron,32.872354,-87.708558
236,Alabaster,33.236868,-86.812861
237,Alberta,32.144889,-87.342503
238,Albertville,34.273859,-86.206447
239,Alexander City,32.941445,-85.951086
240,Alexandria,33.780785,-85.892447
241,Aliceville,33.122813,-88.166689
242,Allgood,33.911944,-86.509444
243,Alma,31.463889,-87.753889
244,Alpine,33.331165,-86.208934
245,Alton,33.579167,-86.6375
246,Altoona,34.042916,-86.350879
247,Andalusia,31.297142,-86.490468
248,Anderson,34.951777,-87.272327
249,Annemanie,32.052778,-87.570833
250,Anniston,33.653896,-85.838152
251,Arab,34.328339,-86.489638
252,Ardmore,34.980447,-86.834612
253,Ariton,31.582996,-85.707716
254,Arley,34.063234,-87.182761
255,Arlington,32.066784,-87.559691
256,Ashford,31.1888,-85.253488
257,Ashland,33.247363,-85.828976
258,Ashville,33.837366,-86.255167
259,Athens,34.803604,-86.970733
260,Atmore,31.057245,-87.487347
261,Attalla,34.029597,-86.096717
262,Auburn,32.602043,-85.489001
263,Auburn University,32.601,-85.4882
264,Autaugaville,32.462462,-86.714938
265,Axis,31.006817,-88.04274
266,Baileyton,34.268298,-86.621299
267,Banks,31.836792,-85.799844
268,Bankston,33.70083,-87.68965
269,Bay Minette,30.86354,-87.76444
270,Bayou La Batre,30.407983,-88.250697
271,Bear Creek,34.213469,-87.686083
272,Beatrice,31.727324,-87.171912
273,Beaverton,33.942877,-88.01567
274,Belk,33.6475,-87.931389
275,Bellamy,32.448889,-88.133611
276,Belle Mina,34.656667,-86.879167
277,Bellwood,31.173056,-85.793333
278,Berry,33.694485,-87.622563
279,Bessemer,33.409002,-86.947547
280,Billingsley,32.610578,-86.716301
281,Birmingham,33.519,-86.8014
282,Birmingham,33.401559,-86.705511
283,Black,31.01318,-85.745634
284,Blountsville,34.092937,-86.568628
285,Boaz,34.173889,-86.121111
286,Boaz,34.173686,-86.148003
287,Boligee,32.774646,-88.026652
288,Bon Air,33.263611,-86.335556
289,Bon Secour,30.328883,-87.721355
290,Booth,32.500278,-86.571944
291,Boykin,32.077778,-87.281389
292,Brantley,31.570963,-86.274343
293,Bremen,33.973664,-87.004281
294,Brent,32.93567,-87.211387
295,Brewton,31.118926,-87.067325
296,Bridgeport,34.944638,-85.727681
297,Brierfield,33.042747,-86.951672
298,Brilliant,34.037702,-87.756315
299,Brooklyn,31.2625,-86.771111
300,Brookside,33.637778,-86.916667
301,Brookwood,33.277523,-87.309025
302,Brownsboro,34.716733,-86.468703
303,Brundidge,31.701324,-85.817668
304,Bryant,34.945026,-85.632445
305,Bucks,31.010278,-88.024167
306,Buhl,33.249448,-87.718886
307,Burnt Corn,31.458009,-86.925771
308,Burnwell,33.707778,-87.0875
309,Butler,32.082906,-88.206391
310,Bynum,33.613056,-85.961111
311,Calera,33.1098,-86.755987
312,Calvert,31.160556,-88.031111
313,Camden,32.004732,-87.295049
314,Camp Hill,32.782749,-85.64738
315,Campbell,31.963512,-88.006072
316,Capshaw,34.773056,-86.792778
317,Carbon Hill,33.909252,-87.540328
318,Cardiff,33.645556,-86.933611
319,Carlton,31.322449,-87.837793
320,Carrollton,33.248506,-88.132122
321,Castleberry,31.326113,-87.026754
322,Catherine,32.182,-87.483623
323,Cecil,32.300891,-86.011241
324,Cedar Bluff,34.241662,-85.602567
325,Centre,34.111592,-85.609229
326,Centreville,32.950324,-87.11924
327,Chancellor,31.173379,-85.910897
328,Chapman,31.671111,-86.712222
329,Chatom,31.487638,-88.269887
330,Chelsea,33.371582,-86.614132
331,Cherokee,34.744188,-87.972445
332,Childersburg,33.266928,-86.337622
333,Choccolocco,33.659167,-85.703611
334,Chunchula,30.991178,-88.131126
335,Citronelle,31.042533,-88.254949
336,Clanton,32.835532,-86.642472
337,Clay,33.7025,-86.599722
338,Clayton,31.887413,-85.450932
339,Cleveland,33.992106,-86.559355
340,Clinton,32.913611,-87.9925
341,Clio,31.68521,-85.590419
342,Clopton,31.602843,-85.482308
343,Cloverdale,34.938611,-87.771389
344,Coaling,33.158889,-87.340833
345,Coden,30.418834,-88.168276
346,Coffee Springs,31.138758,-85.918224
347,Coffeeville,31.78428,-88.071542
348,Coker,33.252612,-87.636528
349,Collinsville,34.267957,-85.861969
350,Columbia,31.335235,-85.145488
351,Columbiana,33.176964,-86.616145
352,Cook Springs,33.589722,-86.361944
353,Coosada,32.496667,-86.331667
354,Cordova,33.768033,-87.18406
355,Cottondale,33.176667,-87.387051
356,Cottonton,32.146667,-85.073889
357,Cottonwood,31.098934,-85.375665
358,Courtland,34.671866,-87.314255
359,Cowarts,31.2,-85.304722
360,Coy,31.888851,-87.392558
361,Cragford,33.217148,-85.710797
362,Crane Hill,34.082117,-87.048395
363,Creola,30.901267,-88.017414
364,Cropwell,33.506448,-86.280026
365,Crossville,34.258784,-86.030575
366,Cuba,32.410973,-88.361083
367,Cullman,34.176146,-86.829777
368,Cusseta,32.803194,-85.215791
369,Dadeville,32.82239,-85.770395
370,Daleville,31.281091,-85.730473
371,Danville,34.452189,-87.053187
372,Daphne,30.61972,-87.889522
373,Dauphin Island,30.252057,-88.109644
374,Daviston,33.033471,-85.753831
375,Dawson,34.356838,-85.929161
376,De Armanville,33.626389,-85.751389
377,Deatsville,32.613405,-86.338211
378,Decatur,34.589599,-86.98868
379,Deer Park,31.184892,-88.32731
380,Delmar,34.17,-87.605833
381,Delta,33.457303,-85.679279
382,Demopolis,32.490792,-87.839669
383,Detroit,34.010874,-88.16063
384,Dickinson,31.717167,-87.656929
385,Dixons Mills,32.067209,-87.745356
386,Docena,33.559444,-86.931111
387,Dolomite,33.465424,-86.956435
388,Dora,33.734947,-87.040148
389,Dothan,31.202888,-85.418036
390,Double Springs,34.138682,-87.397431
391,Douglas,34.173611,-86.323611
392,Dozier,31.506614,-86.366315
393,Duncanville,33.082815,-87.494977
394,Dutton,34.604558,-85.906729
395,East Tallassee,32.607222,-85.808056
396,Eastaboga,33.603132,-85.96075
397,Echola,33.316559,-87.807202
398,Eclectic,32.65419,-86.031614
399,Edwardsville,33.707222,-85.509167
400,Eight Mile,30.795074,-88.182311
401,Elba,31.41373,-86.077728
402,Elberta,30.394239,-87.58896
403,Eldridge,33.931546,-87.619397
404,Elkmont,34.915241,-86.910452
405,Elmore,32.545378,-86.316134
406,Elrod,33.343678,-87.801429
407,Emelle,32.754963,-88.305747
408,Empire,33.825589,-87.016139
409,Enterprise,31.340789,-85.842111
410,Epes,32.763371,-88.161443
411,Equality,32.813908,-86.105064
412,Estillfork,34.913017,-86.171571
413,Ethelsville,33.386816,-88.221987
414,Eufaula,31.905063,-85.165605
415,Eutaw,32.888871,-87.930297
416,Eva,34.347778,-86.704427
417,Excel,31.427778,-87.341389
418,Fackler,34.82589,-85.984648
419,Fairfield,33.473494,-86.918262
420,Fairhope,30.50116,-87.883546
421,Falkville,34.347653,-86.913086
422,Faunsdale,32.423259,-87.618079
423,Fayette,33.697397,-87.834647
424,Fitzpatrick,32.151607,-85.888329
425,Five Points,33.042408,-85.324264
426,Flat Rock,34.807598,-85.708372
427,Flomaton,31.040233,-87.266365
428,Florala,31.017194,-86.338528
429,Florence,34.830547,-87.655985
430,Foley,30.400664,-87.685737
431,Forest Home,31.85318,-86.786377
432,Forkland,32.644661,-87.881676
433,Fort Davis,32.28945,-85.700688
434,Fort Deposit,31.995979,-86.576142
435,Fort Mitchell,32.341389,-85.021667
436,Fort Payne,34.436792,-85.712394
437,Fort Rucker,31.348011,-85.721374
438,Fosters,33.135859,-87.735688
439,Franklin,31.723815,-87.441237
440,Frankville,31.64684,-88.133185
441,Frisco City,31.423478,-87.381744
442,Fruitdale,31.348843,-88.376597
443,Fruithurst,33.771732,-85.43814
444,Fulton,31.790947,-87.708065
445,Fultondale,33.611283,-86.813614
446,Furman,32.006667,-86.966944
447,Fyffe,34.437284,-85.928849
448,Gadsden,33.997248,-86.010279
449,Gainestown,31.425822,-87.682176
450,Gainesville,32.908364,-88.271558
451,Gallant,33.997586,-86.234606
452,Gallion,32.529771,-87.698542
453,Gantt,31.416909,-86.419836
454,Garden City,34.014444,-86.746944
455,Gardendale,33.71891,-86.822481
456,Gaylesville,34.357324,-85.558893
457,Geneva,31.041445,-85.884748
458,Georgiana,31.628662,-86.733965
459,Geraldine,34.343864,-86.040393
460,Gilbertown,31.866602,-88.326514
461,Glen Allen,33.899444,-87.730278
462,Glenwood,31.664143,-86.170972
463,Goodsprings,33.668889,-87.231667
464,Goodwater,33.074642,-86.078149
465,Goodway,31.336667,-87.425833
466,Gordo,33.346917,-87.900504
467,Gordon,31.10019,-85.123412
468,Goshen,31.82497,-86.104851
469,Grady,32.019397,-86.129246
470,Graham,33.462976,-85.334034
471,Grand Bay,30.498288,-88.32825
472,Grant,34.495902,-86.259041
473,Graysville,33.63356,-86.948221
474,Green Pond,33.225,-87.126389
475,Greensboro,32.716721,-87.590494
476,Greenville,31.810036,-86.622919
477,Grove Hill,31.675502,-87.763571
478,Groveoak,34.435874,-86.040023
479,Guin,33.967624,-87.90238
480,Gulf Shores,30.268954,-87.712795
481,Guntersville,34.32193,-86.305463
482,Gurley,34.713964,-86.394028
483,Hackleburg,34.267803,-87.860762
484,Haleyville,34.231423,-87.593811
485,Hamilton,34.153413,-88.008521
486,Hanceville,34.051569,-86.784844
487,Hardaway,32.312939,-85.883837
488,Harpersville,33.36746,-86.429441
489,Hartford,31.08598,-85.719204
490,Hartselle,34.448206,-86.924235
491,Harvest,34.82732,-86.749929
492,Hatchechubbee,32.284531,-85.302882
493,Hayden,33.885806,-86.81767
494,Hayneville,32.195707,-86.654994
495,Hazel Green,34.949627,-86.593484
496,Headland,31.353406,-85.332277
497,Heflin,33.611515,-85.588471
498,Helena,33.316978,-86.813786
499,Henagar,34.618604,-85.727381
500,Higdon,34.873247,-85.622507
501,Highland Home,31.928292,-86.297111
502,Hillsboro,34.64763,-87.180379
503,Hodges,34.341664,-87.959023
504,Hollins,33.1175,-86.144444
505,Holly Pond,34.190085,-86.617441
506,Hollytree,34.798979,-86.233627
507,Hollywood,34.730428,-85.953173
508,Holy Trinity,32.222222,-85.005278
509,Honoraville,31.878397,-86.398064
510,Hope Hull,32.224256,-86.393189
511,Horton,34.190033,-86.317318
512,Houston,34.118042,-87.26183
513,Huntsville,34.726866,-86.567318
514,Hurtsboro,32.245429,-85.395903
515,Huxford,31.22,-87.461944
516,Ider,34.735059,-85.641577
517,Irvington,30.480241,-88.239563
518,Jachin,32.244174,-88.233356
519,Jack,31.552392,-86.043083
520,Jackson,31.513098,-87.867192
521,Jacksons Gap,32.879698,-85.848662
522,Jacksonville,33.830966,-85.77518
523,Jasper,33.871672,-87.249144
524,Jefferson,32.386667,-87.898056
525,Jemison,32.980539,-86.718052
526,Jones,32.608515,-86.889266
527,Joppa,34.283739,-86.551939
528,Kansas,33.901667,-87.551944
529,Kellerman,33.340556,-87.304722
530,Kellyton,32.979068,-86.048397
531,Kennedy,33.574964,-88.05172
532,Kent,32.618889,-85.948611
533,Killen,34.901632,-87.508185
534,Kimberly,33.768355,-86.808417
535,Kinston,31.262118,-86.069532
536,Knoxville,32.982423,-87.791855
537,Laceys Spring,34.499647,-86.612869
538,Lafayette,32.925237,-85.442563
539,Lanett,32.861609,-85.21608
540,Langston,34.497831,-86.10563
541,Lapine,31.985423,-86.278534
542,Lawley,32.864558,-86.956708
543,Leeds,33.528333,-86.574824
544,Leesburg,34.191083,-85.77051
545,Leighton,34.710982,-87.522133
546,Lenox,31.327261,-87.19671
547,Leroy,31.491021,-87.968672
548,Lester,34.918364,-87.143396
549,Letohatchee,32.086199,-86.488013
550,Lexington,34.955924,-87.393519
551,Lillian,30.39724,-87.474452
552,Lincoln,33.605913,-86.111152
553,Linden,32.305343,-87.795358
554,Lineville,33.328613,-85.734609
555,Lisman,32.217722,-88.323419
556,Little River,31.22459,-87.754796
557,Livingston,32.588509,-88.173592
558,Loachapoka,32.604167,-85.593333
559,Lockhart,31.010278,-86.349722
560,Locust Fork,33.9075,-86.615278
561,Logan,34.184079,-87.038115
562,Louisville,31.794262,-85.558062
563,Lower Peach Tree,31.850365,-87.568224
564,Lowndesboro,32.300292,-86.609868
565,Loxley,30.617964,-87.75624
566,Luverne,31.70739,-86.256601
567,Lynn,34.052984,-87.539814
568,Madison,34.6578,-86.8056
569,Madison,34.7837,-86.7486
570,Magnolia,32.141931,-87.699815
571,Magnolia Springs,30.394497,-87.785781
572,Malcolm,31.191111,-88.0075
573,Malvern,31.157528,-85.522327
574,Maplesville,32.804507,-86.871704
575,Marbury,32.639373,-86.510138
576,Margaret,33.686111,-86.475
577,Marion,32.646301,-87.331437
578,Marion Junction,32.426589,-87.270181
579,Mathews,32.128288,-86.041262
580,Maylene,33.231694,-86.872745
581,Mc Calla,33.284546,-87.102379
582,Mc Intosh,31.236108,-88.051102
583,Mc Kenzie,31.54495,-86.735615
584,Mc Shan,33.381667,-88.143333
585,Mc Williams,31.845556,-87.088333
586,Megargel,31.379722,-87.428333
587,Melvin,31.930278,-88.458889
588,Mentone,34.587236,-85.577728
589,Meridianville,34.861779,-86.578879
590,Mexia,31.506944,-87.388333
591,Midland City,31.36716,-85.513033
592,Midway,32.09552,-85.531523
593,Millbrook,32.499485,-86.364125
594,Millerville,33.158959,-85.969001
595,Millport,33.54013,-88.200003
596,Millry,31.626871,-88.355872
597,Minter,32.095387,-86.92497
598,Mobile,30.6959,-88.0434
599,Monroeville,31.51533,-87.340993
600,Montevallo,33.124765,-86.862228
601,Montgomery,32.3743,-86.3118
602,Montrose,30.565556,-87.901667
603,Moody,33.584132,-86.51557
604,Mooresville,34.628333,-86.880278
605,Morris,33.739172,-86.772551
606,Morvin,31.967305,-87.972897
607,Moulton,34.505836,-87.222385
608,Moundville,32.978853,-87.615134
609,Mount Hope,34.462969,-87.451453
610,Mount Meigs,32.3625,-86.101944
611,Mount Olive,33.67678,-86.87171
612,Mount Vernon,31.097375,-88.035044
613,Mulga,33.540696,-87.043998
614,Munford,33.540987,-85.936322
615,Muscadine,33.752913,-85.378907
616,Muscle Shoals,34.756136,-87.630443
617,Myrtlewood,32.250278,-87.949722
618,Nanafalia,32.112778,-87.988056
619,Natural Bridge,34.093333,-87.601944
620,Nauvoo,33.929859,-87.432449
621,Needham,32.012165,-88.345798
622,New Brockton,31.36898,-85.940386
623,New Castle,33.648889,-86.768611
624,New Hope,34.549445,-86.3961
625,New Market,34.899991,-86.448742
626,Newbern,32.551465,-87.561472
627,Newton,31.331064,-85.599229
628,Newville,31.440295,-85.328741
629,Normal,34.788889,-86.571944
630,Northport,33.2605,-87.5872
631,Notasulga,32.543727,-85.68707
632,Oak Hill,31.925,-87.0825
633,Oakman,33.700174,-87.368574
634,Odenville,33.675611,-86.408952
635,Ohatchee,33.778779,-86.025357
636,Oneonta,33.925858,-86.474118
637,Opelika,32.627771,-85.358629
638,Opp,31.279861,-86.257105
639,Orange Beach,30.290596,-87.555888
640,Orrville,32.294859,-87.221368
641,Owens Cross Roads,34.612859,-86.466577
642,Oxford,33.596829,-85.83347
643,Ozark,31.439069,-85.643629
644,Paint Rock,34.667122,-86.332562
645,Palmerdale,33.738611,-86.646111
646,Panola,32.950556,-88.268889
647,Pansey,31.131778,-85.238549
648,Parrish,33.721307,-87.265773
649,Pelham,33.31046,-86.806176
650,Pell City,33.597889,-86.343151
651,Pennington,32.226245,-88.0931
652,Perdido,30.98058,-87.628374
653,Perdue Hill,31.513889,-87.493333
654,Perote,32.003459,-85.74773
655,Peterman,31.589953,-87.259984
656,Peterson,33.2325,-87.423611
657,Petrey,31.848611,-86.207778
658,Phenix City,32.484,-85.0911
659,Phenix City,32.407816,-85.095082
660,Phil Campbell,34.347018,-87.715431
661,Piedmont,33.838946,-85.645997
662,Pike Road,32.335705,-86.09589
663,Pinckard,31.311389,-85.553056
664,Pine Apple,31.926522,-87.004667
665,Pine Hill,31.973546,-87.577086
666,Pine Level,32.067778,-86.059722
667,Pinson,33.708131,-86.656542
668,Pisgah,34.688601,-85.803044
669,Pittsview,32.173346,-85.131248
670,Plantersville,32.617608,-86.947531
671,Pleasant Grove,33.488336,-86.976586
672,Point Clear,30.473889,-87.919167
673,Prattville,32.478695,-86.42997
674,Princeton,34.840217,-86.250068
675,Quinton,33.656065,-87.10066
676,Ragland,33.736677,-86.1619
677,Rainsville,34.498884,-85.844605
678,Ralph,33.062868,-87.744984
679,Ramer,32.067745,-86.246329
680,Ranburne,33.561627,-85.378604
681,Randolph,32.888834,-86.90701
682,Range,31.30169,-87.319739
683,Red Bay,34.451259,-88.112914
684,Red Level,31.439931,-86.61209
685,Reform,33.395945,-88.020277
686,Remlap,33.846204,-86.641662
687,Repton,31.425569,-87.172039
688,River Falls,31.352778,-86.539167
689,Riverside,33.608832,-86.198341
690,Roanoke,33.156443,-85.357854
691,Robertsdale,30.561608,-87.637268
692,Rockford,32.877957,-86.240006
693,Rogersville,34.849544,-87.323671
694,Russellville,34.506568,-87.725726
695,Rutledge,31.755867,-86.348464
696,Ryland,34.769722,-86.480833
697,Safford,32.300242,-87.369345
698,Saginaw,33.216111,-86.791944
699,Saint Elmo,30.503333,-88.254167
700,Saint Stephens,31.533028,-88.052094
701,Salem,32.621157,-85.183966
702,Samantha,33.422222,-87.605278
703,Samson,31.104918,-86.067416
704,Saraland,30.833197,-88.093387
705,Sardis,32.284358,-86.991959
706,Satsuma,30.851628,-88.053312
707,Sawyerville,32.757796,-87.740201
708,Sayre,33.712222,-86.974444
709,Scottsboro,34.67227,-86.051336
710,Seale,32.305339,-85.167733
711,Section,34.543275,-85.994002
712,Selma,32.419719,-87.024527
713,Seminole,30.504806,-87.465938
714,Semmes,30.754408,-88.266705
715,Shannon,33.405278,-86.871944
716,Sheffield,34.757829,-87.697057
717,Shelby,33.078483,-86.553606
718,Shorter,32.383585,-85.91616
719,Shorterville,31.625627,-85.14584
720,Silas,31.766754,-88.309149
721,Siluria,33.244167,-86.816389
722,Silverhill,30.522237,-87.745676
723,Sipsey,33.824722,-87.086111
724,Skipperville,31.551588,-85.549578
725,Slocomb,31.095558,-85.582954
726,Smiths Station,32.520072,-85.100027
727,Somerville,34.499548,-86.800931
728,Spanish Fort,30.695852,-87.88668
729,Spring Garden,33.972778,-85.553889
730,Springville,33.738647,-86.439407
731,Spruce Pine,34.384796,-87.712149
732,Stanton,32.709631,-86.886848
733,Stapleton,30.7425,-87.793333
734,Steele,33.941679,-86.228929
735,Sterrett,33.446103,-86.491732
736,Stevenson,34.876885,-85.850803
737,Stockton,31.01293,-87.863323
738,Sulligent,33.8549,-88.150774
739,Sumiton,33.768005,-87.044545
740,Summerdale,30.475225,-87.699183
741,Sunflower,31.382222,-88.008333
742,Sweet Water,32.077272,-87.922755
743,Sycamore,33.251111,-86.2025
744,Sylacauga,33.171675,-86.271257
745,Sylvania,34.558962,-85.792128
746,Talladega,33.435445,-86.113352
747,Tallassee,32.550997,-85.89781
748,Tanner,34.713037,-86.989152
749,Theodore,30.544374,-88.180748
750,Thomaston,32.253776,-87.597438
751,Thomasville,31.906728,-87.759842
752,Thorsby,32.923755,-86.746724
753,Tibbie,31.373742,-88.266828
754,Titus,32.690019,-86.239334
755,Toney,34.911644,-86.699951
756,Town Creek,34.649138,-87.426195
757,Townley,33.84702,-87.437248
758,Toxey,31.93153,-88.31794
759,Trafford,33.819038,-86.743414
760,Trenton,34.740065,-86.291264
761,Trinity,34.591771,-87.09127
762,Troy,31.7567,-85.9993
763,Trussville,33.633932,-86.598068
764,Tuscaloosa,33.196891,-87.562666
765,Tuscumbia,34.687432,-87.683259
766,Tuskegee,32.431623,-85.68606
767,Tuskegee Institute,32.430278,-85.705278
768,Tyler,32.281924,-86.859867
769,Union Grove,34.409345,-86.462793
770,Union Springs,32.166252,-85.678746
771,Uniontown,32.446966,-87.493398
772,Uriah,31.313467,-87.570518
773,Valhermoso Springs,34.538145,-86.678
774,Valley,32.811349,-85.174911
775,Valley,32.820833,-85.170833
776,Valley Head,34.5697,-85.627208
777,Vance,33.17498,-87.257362
778,Vandiver,33.480704,-86.501278
779,Verbena,32.759565,-86.543753
780,Vernon,33.761285,-88.097919
781,Vina,34.37116,-88.077422
782,Vincent,33.401049,-86.399425
783,Vinegar Bend,31.25841,-88.386466
784,Vinemont,34.262121,-86.912512
785,Vredenburgh,31.73443,-87.416184
786,Wadley,33.149192,-85.551344
787,Wagarville,31.410205,-88.070519
788,Walnut Grove,34.065556,-86.306389
789,Ward,32.334063,-88.297114
790,Warrior,33.852862,-86.819849
791,Waterloo,34.93568,-87.962412
792,Watson,33.633611,-86.879444
793,Wattsville,33.681389,-86.279722
794,Waverly,32.763167,-85.514372
795,Weaver,33.756286,-85.810666
796,Webb,31.265618,-85.254385
797,Wedowee,33.301854,-85.473737
798,Wellington,33.863843,-85.915325
799,Weogufka,33.02381,-86.304203
800,West Blocton,33.142431,-87.13694
801,West Greene,32.923611,-88.085278
802,Westover,33.349444,-86.535833
803,Wetumpka,32.54509,-86.188039
804,Whatley,31.639453,-87.656502
805,Wilmer,30.813745,-88.333196
806,Wilsonville,33.229255,-86.529894
807,Wilton,33.078611,-86.881667
808,Winfield,33.930256,-87.79716
809,Wing,31.148127,-86.56119
810,Woodland,33.355453,-85.353768
811,Woodstock,33.169808,-87.163469
812,Woodville,34.668927,-86.22961
813,York,32.472765,-88.268304
814,Adona,35.046956,-92.903325
815,Alexander,34.631266,-92.472673
816,Alicia,35.942327,-91.081003
817,Alix,35.430767,-93.726416
818,Alleene,33.77,-94.260278
819,Alma,35.500043,-94.207337
820,Almyra,34.41459,-91.430992
821,Alpena,36.299768,-93.2792
822,Alpine,34.228889,-93.378889
823,Altheimer,34.306168,-91.828916
824,Altus,35.404873,-93.811494
825,Amagon,35.561559,-91.079636
826,Amity,34.259362,-93.420551
827,Antoine,34.028296,-93.437169
828,Arkadelphia,34.11525,-93.068989
829,Arkansas City,33.614328,-91.232529
830,Armorel,35.942843,-89.758118
831,Ash Flat,36.219732,-91.610746
832,Ashdown,33.678711,-94.135102
833,Atkins,35.244948,-92.950696
834,Aubrey,34.702727,-90.911331
835,Augusta,35.278806,-91.352653
836,Austin,35.028369,-91.959398
837,Avoca,36.401944,-94.070556
838,Bald Knob,35.311331,-91.550197
839,Banks,33.549665,-92.260386
840,Barling,35.332963,-94.308226
841,Barton,34.5475,-90.768056
842,Bassett,35.513808,-90.192155
843,Batesville,35.782614,-91.63519
844,Bauxite,34.545537,-92.360531
845,Bay,35.74559,-90.550658
846,Bearden,33.729797,-92.61802
847,Beaver,36.473611,-93.767222
848,Bee Branch,35.423367,-92.408523
849,Beebe,35.093743,-91.907449
850,Beech Grove,36.183172,-90.618084
851,Beedeville,35.420267,-91.106371
852,Beirne,33.888611,-93.203889
853,Bella Vista,36.465086,-94.251969
854,Belleville,35.103762,-93.451817
855,Ben Lomond,33.835278,-94.118333
856,Benton,34.580087,-92.595241
857,Bentonville,36.357703,-94.22242
858,Bergman,36.316111,-93.0075
859,Berryville,36.351908,-93.558725
860,Bexar,36.306103,-91.985998
861,Big Flat,36.006824,-92.391681
862,Bigelow,34.984659,-92.630842
863,Biggers,36.342978,-90.784467
864,Biscoe,34.833706,-91.490028
865,Bismarck,34.311033,-93.187236
866,Black Oak,35.835851,-90.354227
867,Black Rock,36.114874,-91.117629
868,Blevins,33.875468,-93.536035
869,Blue Mountain,35.130386,-93.716797
870,Bluff City,33.698191,-93.186811
871,Bluffton,34.901635,-93.591946
872,Blytheville,35.934482,-89.922497
873,Board Camp,34.537778,-94.095278
874,Boles,34.765363,-94.062864
875,Bonnerdale,34.349751,-93.319415
876,Bono,35.908592,-90.784753
877,Booneville,35.136385,-93.927433
878,Bradford,35.427655,-91.518973
879,Bradley,33.106963,-93.627496
880,Branch,35.297055,-93.94537
881,Brickeys,34.854814,-90.537738
882,Briggsville,34.916065,-93.515748
883,Brinkley,34.878124,-91.188596
884,Brockwell,36.135755,-91.951308
885,Brookland,35.91647,-90.576228
886,Bryant,34.606786,-92.492015
887,Buckner,33.375323,-93.446998
888,Bull Shoals,36.370958,-92.593765
889,Burdette,35.814769,-89.942312
890,Cabot,34.945724,-92.031771
891,Caddo Gap,34.397579,-93.586376
892,Caldwell,35.074444,-90.816667
893,Cale,33.616403,-93.26497
894,Calico Rock,36.144771,-92.145494
895,Calion,33.328889,-92.538333
896,Camden,33.575866,-92.833386
897,Camp,36.402531,-91.726166
898,Canehill,35.910992,-94.3862
899,Caraway,35.758951,-90.335797
900,Carlisle,34.793291,-91.745929
901,Carthage,34.063625,-92.62623
902,Casa,35.032168,-93.047005
903,Cash,35.830145,-90.941007
904,Casscoe,34.473625,-91.324798
905,Cave City,35.951684,-91.544432
906,Cave Springs,36.266771,-94.207836
907,Cecil,35.434176,-93.942932
908,Cedarville,35.590231,-94.344618
909,Center Ridge,35.398063,-92.558167
910,Centerton,36.366993,-94.30891
911,Centerville,35.112778,-93.168611
912,Charleston,35.311502,-94.03368
913,Charlotte,35.833393,-91.396217
914,Cherokee Village,36.297778,-91.515833
915,Cherry Valley,35.399122,-90.761329
916,Chester,35.689776,-94.202026
917,Chidester,33.700148,-93.018716
918,Choctaw,35.523528,-92.426412
919,Clarendon,34.660138,-91.256426
920,Clarkedale,35.309167,-90.236111
921,Clarkridge,36.443311,-92.35159
922,Clarksville,35.490763,-93.491056
923,Cleveland,35.358328,-92.712821
924,Clinton,35.604537,-92.475825
925,Coal Hill,35.437117,-93.67203
926,College Station,34.708056,-92.221111
927,Colt,35.096062,-90.787204
928,Columbus,33.745108,-93.85588
929,Combs,35.848297,-93.825218
930,Compton,36.097941,-93.309903
931,Concord,35.641355,-91.833339
932,Conway,35.084199,-92.423574
933,Cord,35.81844,-91.337455
934,Corning,36.415532,-90.58702
935,Cotter,36.280378,-92.532787
936,Cotton Plant,35.017827,-91.229043
937,Cove,34.419159,-94.39234
938,Coy,34.538611,-91.873889
939,Crawfordsville,35.211873,-90.335107
940,Crocketts Bluff,34.425272,-91.232079
941,Crossett,33.152369,-91.959152
942,Crumrod,34.216167,-90.949535
943,Curtis,33.997778,-93.105556
944,Cushman,35.869663,-91.776455
945,Damascus,35.291042,-92.432952
946,Danville,35.049541,-93.392933
947,Dardanelle,35.195507,-93.187316
948,Datto,36.389685,-90.723117
949,De Queen,34.044206,-94.338559
950,De Valls Bluff,34.744704,-91.498218
951,De Witt,34.285312,-91.333627
952,Decatur,36.334749,-94.453411
953,Deer,35.852982,-93.317388
954,Delaplaine,36.199485,-90.734482
955,Delaware,35.278005,-93.346152
956,Delight,34.023772,-93.524666
957,Dell,35.850118,-90.035449
958,Dennard,35.725236,-92.557456
959,Dermott,33.524054,-91.439391
960,Des Arc,34.97507,-91.511342
961,Desha,35.731524,-91.678287
962,Diamond City,36.464444,-92.92
963,Diaz,35.638333,-91.265
964,Dierks,34.13232,-94.015243
965,Doddridge,33.105448,-93.954307
966,Dolph,36.222878,-92.11766
967,Donaldson,34.221221,-92.909384
968,Dover,35.407356,-93.135526
969,Drasco,35.661606,-91.939818
970,Driver,35.559714,-89.960526
971,Dumas,33.892102,-91.486056
972,Dyer,35.492222,-94.1375
973,Dyess,35.595394,-90.215716
974,Earle,35.27989,-90.450261
975,Edgemont,35.623006,-92.199471
976,Edmondson,35.022309,-90.328672
977,Egypt,35.868056,-90.945556
978,El Dorado,33.20735,-92.662856
979,El Paso,35.114176,-92.090076
980,Elaine,34.308668,-90.873485
981,Elizabeth,36.323776,-92.093366
982,Elkins,36.017719,-94.007323
983,Elm Springs,36.206111,-94.234167
984,Emerson,33.089054,-93.198699
985,Emmet,33.692896,-93.423242
986,England,34.557458,-91.948422
987,Enola,35.208705,-92.212328
988,Ethel,34.243525,-91.139839
989,Etowah,35.714707,-90.218172
990,Eudora,33.12135,-91.271552
991,Eureka Springs,36.485278,-93.731944
992,Evansville,35.819345,-94.478936
993,Evening Shade,36.085532,-91.598014
994,Everton,36.153366,-92.914989
995,Fairfield Bay,35.656111,-92.319167
996,Farmington,36.043635,-94.253871
997,Fayetteville,36.052045,-94.153395
998,Fifty Six,35.991958,-92.218169
999,Fisher,35.513956,-90.955001
1000,Flippin,36.268219,-92.577995
1001,Floral,35.602337,-91.734101
1002,Fordyce,33.817648,-92.422475
1003,Foreman,33.71759,-94.388108
1004,Forrest City,35.009129,-90.788572
1005,Fort Smith,35.365272,-94.411035
1006,Fouke,33.302476,-93.900953
1007,Fountain Hill,33.342951,-91.835627
1008,Fox,35.768208,-92.304266
1009,Franklin,36.129093,-91.809592
1010,Frenchmans Bayou,35.478419,-90.055933
1011,Friendship,34.241225,-92.980393
1012,Fulton,33.629876,-93.808562
1013,Gamaliel,36.461794,-92.228447
1014,Garfield,36.428817,-93.951197
1015,Garland City,33.335161,-93.731624
1016,Garner,35.130305,-91.742884
1017,Gassville,36.317525,-92.473637
1018,Gateway,36.485751,-93.935016
1019,Genoa,33.383611,-93.909444
1020,Gentry,36.26516,-94.475131
1021,Gepp,36.436443,-92.099507
1022,Gilbert,35.987778,-92.716111
1023,Gillett,34.121838,-91.380048
1024,Gillham,34.157003,-94.316497
1025,Gilmore,35.386408,-90.264664
1026,Glencoe,36.288962,-91.769483
1027,Glenwood,34.319207,-93.555881
1028,Goodwin,34.959149,-90.983518
1029,Goshen,36.107523,-93.987262
1030,Gosnell,35.9272,-89.9188
1031,Gould,34.034503,-91.576798
1032,Grady,34.030484,-91.67082
1033,Grannis,34.237021,-94.3255
1034,Grapevine,34.130893,-92.310944
1035,Gravelly,34.888123,-93.680249
1036,Gravette,36.415513,-94.477862
1037,Green Forest,36.322408,-93.405875
1038,Greenbrier,35.229547,-92.357792
1039,Greenland,35.994167,-94.175
1040,Greenway,36.334766,-90.225257
1041,Greenwood,35.195476,-94.253027
1042,Gregory,35.155278,-91.343056
1043,Griffithville,35.114383,-91.624234
1044,Grubbs,35.649722,-91.073889
1045,Guion,35.960135,-91.934287
1046,Gurdon,33.912493,-93.141691
1047,Guy,35.318487,-92.331539
1048,Hackett,35.194476,-94.398328
1049,Hagarville,35.523291,-93.344256
1050,Hamburg,33.2058,-91.802265
1051,Hampton,33.537613,-92.52951
1052,Hardy,36.322746,-91.411027
1053,Harrell,33.510865,-92.391243
1054,Harriet,35.974187,-92.50055
1055,Harrisburg,35.572222,-90.703752
1056,Harrison,36.241707,-93.106162
1057,Hartford,35.022233,-94.381876
1058,Hartman,35.443583,-93.614196
1059,Harvey,34.867912,-93.752538
1060,Hasty,36.015229,-93.045966
1061,Hatfield,34.487703,-94.371397
1062,Hattieville,35.290713,-92.778317
1063,Havana,35.111845,-93.576719
1064,Haynes,34.883752,-90.766621
1065,Hazen,34.783833,-91.576699
1066,Heber Springs,35.510278,-92.039211
1067,Hector,35.40574,-92.965559
1068,Helena,34.532491,-90.629784
1069,Henderson,36.356829,-92.269253
1070,Hensley,34.591133,-92.214019
1071,Hermitage,33.422207,-92.127714
1072,Heth,35.097335,-90.458554
1073,Hickory Plains,34.978642,-91.750844
1074,Hickory Ridge,35.399457,-90.982283
1075,Higden,35.549812,-92.182284
1076,Higginson,35.188254,-91.71828
1077,Hindsville,36.142206,-93.863339
1078,Hiwasse,36.441589,-94.338993
1079,Holly Grove,34.599294,-91.184376
1080,Hope,33.656645,-93.590305
1081,Horatio,33.939221,-94.295942
1082,Horseshoe Bend,36.202502,-91.755334
1083,Hot Springs National Park,34.501475,-93.026024
1084,Hot Springs Village,34.6411,-93.0574
1085,Houston,35.036209,-92.691319
1086,Hoxie,36.032573,-90.971504
1087,Hughes,34.945416,-90.474142
1088,Humnoke,34.541896,-91.756616
1089,Humphrey,34.403387,-91.67896
1090,Hunter,35.052778,-91.126111
1091,Huntington,35.096267,-94.331283
1092,Huntsville,36.104348,-93.727893
1093,Huttig,33.045888,-92.194153
1094,Ida,35.594326,-91.930081
1095,Imboden,36.19763,-91.185442
1096,Ivan,33.902984,-92.439406
1097,Jacksonport,35.641667,-91.309444
1098,Jacksonville,34.881985,-92.130435
1099,Jasper,36.003798,-93.204771
1100,Jefferson,34.355285,-92.148574
1101,Jersey,33.388914,-92.296613
1102,Jerusalem,35.37975,-92.813886
1103,Jessieville,34.693729,-93.196318
1104,Johnson,36.132778,-94.165278
1105,Joiner,35.505239,-90.14779
1106,Jones Mill,34.453624,-92.861975
1107,Jonesboro,35.833016,-90.696526
1108,Judsonia,35.324954,-91.649087
1109,Junction City,33.043965,-92.684254
1110,Keiser,35.678626,-90.096171
1111,Kensett,35.229939,-91.669672
1112,Keo,34.604072,-92.007844
1113,Kingsland,33.86002,-92.301415
1114,Kingston,36.04845,-93.504357
1115,Kirby,34.255153,-93.616716
1116,Knobel,36.317647,-90.599048
1117,Knoxville,35.374897,-93.361797
1118,La Grange,34.656389,-90.732778
1119,Lafe,36.21547,-90.506973
1120,Lake City,35.81715,-90.442327
1121,Lake Village,33.327408,-91.282487
1122,Lakeview,36.397308,-92.504416
1123,Lamar,35.434868,-93.355157
1124,Lambrook,34.335556,-90.9675
1125,Laneburg,33.685,-93.346667
1126,Langley,34.314035,-93.850942
1127,Lavaca,35.337513,-94.165637
1128,Lawson,33.196667,-92.482778
1129,Leachville,35.933216,-90.195488
1130,Lead Hill,36.430886,-92.930194
1131,Leola,34.185605,-92.597865
1132,Lepanto,35.606909,-90.335883
1133,Leslie,35.82716,-92.566293
1134,Letona,35.361667,-91.829167
1135,Lewisville,33.373603,-93.595258
1136,Lexa,34.672694,-90.78532
1137,Light,36.07,-90.747778
1138,Lincoln,35.956931,-94.42724
1139,Little Rock,34.748342,-92.281939
1140,Little Rock Air Force Base,34.898611,-92.144167
1141,Lockesburg,33.930553,-94.127588
1142,Locust Grove,35.717705,-91.741443
1143,London,35.337017,-93.238907
1144,Lonoke,34.783162,-91.921367
1145,Lonsdale,34.556203,-92.834034
1146,Louann,33.411744,-92.782759
1147,Lowell,36.243318,-94.082725
1148,Luxora,35.760786,-89.92204
1149,Lynn,36.016639,-91.254588
1150,Mabelvale,34.621756,-92.384618
1151,Madison,35.013056,-90.7225
1152,Magazine,35.15873,-93.800336
1153,Magness,35.710062,-91.485041
1154,Magnolia,33.264678,-93.239153
1155,Malvern,34.355715,-92.829162
1156,Mammoth Spring,36.407648,-91.575712
1157,Manila,35.874885,-90.180252
1158,Mansfield,35.0432,-94.22036
1159,Marble Falls,36.095121,-93.144822
1160,Marcella,35.749654,-91.941891
1161,Marianna,34.775929,-90.77852
1162,Marion,35.2077,-90.198908
1163,Marked Tree,35.534933,-90.419387
1164,Marmaduke,36.195117,-90.38368
1165,Marshall,35.926697,-92.640203
1166,Marvell,34.548541,-90.941322
1167,Maumelle,34.849085,-92.405892
1168,Mayflower,34.966853,-92.400102
1169,Maynard,36.438563,-90.874921
1170,Maysville,36.401062,-94.581278
1171,Mc Caskill,33.923042,-93.626605
1172,Mc Crory,35.247292,-91.179327
1173,Mc Dougal,36.379909,-90.394093
1174,Mc Gehee,33.62971,-91.392781
1175,Mc Neil,33.36222,-93.193006
1176,Mc Rae,35.11322,-91.821551
1177,Melbourne,36.059958,-91.905196
1178,Mellwood,34.220032,-91.008589
1179,Mena,34.581435,-94.220984
1180,Menifee,35.148333,-92.553889
1181,Midland,35.093056,-94.353056
1182,Midway,36.290454,-92.431398
1183,Mineral Springs,33.863852,-93.918828
1184,Minturn,35.976096,-91.033704
1185,Monette,35.900168,-90.343658
1186,Monroe,34.734722,-91.104444
1187,Monticello,33.624951,-91.794845
1188,Montrose,33.307516,-91.522776
1189,Moro,34.802953,-91.006026
1190,Morrilton,35.169227,-92.735436
1191,Morrow,35.85373,-94.425793
1192,Moscow,34.146389,-91.795
1193,Mount Holly,33.308534,-92.944265
1194,Mount Ida,34.561194,-93.574904
1195,Mount Judea,35.834674,-93.082391
1196,Mount Pleasant,35.975909,-91.785013
1197,Mount Vernon,35.260613,-92.137334
1198,Mountain Home,36.331153,-92.375337
1199,Mountain Pine,34.577182,-93.160041
1200,Mountain View,35.865769,-92.114762
1201,Mountainburg,35.570027,-94.109094
1202,Mulberry,35.517246,-93.988505
1203,Murfreesboro,34.101734,-93.710903
1204,Nashville,33.957646,-93.870709
1205,Natural Dam,35.674259,-94.412377
1206,New Blaine,35.318912,-93.44457
1207,New Edinburg,33.758846,-92.193909
1208,Newark,35.71183,-91.439395
1209,Newhope,34.227347,-93.890487
1210,Newport,35.598823,-91.257064
1211,Norfork,36.206571,-92.273011
1212,Norman,34.459633,-93.674304
1213,Norphlet,33.309619,-92.657619
1214,North Little Rock,34.766974,-92.265376
1215,O Kean,36.179672,-90.824069
1216,Oak Grove,36.461347,-93.432129
1217,Oakland,36.444227,-92.583187
1218,Oark,35.709454,-93.558531
1219,Oden,34.611292,-93.821103
1220,Ogden,33.585706,-94.027826
1221,Oil Trough,35.613147,-91.470305
1222,Okolona,34.055138,-93.289679
1223,Ola,35.03091,-93.21356
1224,Omaha,36.46123,-93.188753
1225,Oneida,34.405267,-90.826045
1226,Onia,35.940339,-92.345859
1227,Osceola,35.701864,-89.979764
1228,Oxford,36.211408,-91.925849
1229,Ozan,33.902775,-93.771443
1230,Ozark,35.524645,-93.837423
1231,Ozone,35.657478,-93.43111
1232,Palestine,34.966346,-90.904929
1233,Pangburn,35.421583,-91.795971
1234,Paragould,36.060033,-90.525093
1235,Paris,35.294149,-93.726469
1236,Parkdale,33.121267,-91.542793
1237,Parkin,35.258557,-90.556417
1238,Parks,34.800333,-93.950913
1239,Paron,34.785289,-92.748176
1240,Parthenon,35.940836,-93.267776
1241,Patterson,35.256667,-91.235
1242,Pea Ridge,36.453884,-94.118026
1243,Peach Orchard,36.283045,-90.670217
1244,Pearcy,34.435092,-93.242015
1245,Peel,36.444374,-92.776143
1246,Pelsor,35.691158,-93.016088
1247,Pencil Bluff,34.639946,-93.742947
1248,Perry,35.042732,-92.787976
1249,Perryville,34.970096,-92.847171
1250,Pettigrew,35.834562,-93.618079
1251,Pickens,33.807923,-91.39157
1252,Piggott,36.386993,-90.19261
1253,Pindall,36.067479,-92.886409
1254,Pine Bluff,34.215405,-91.995812
1255,Pineville,36.167704,-92.107299
1256,Plainview,34.966793,-93.309897
1257,Pleasant Grove,35.842349,-91.931905
1258,Pleasant Plains,35.589301,-91.632043
1259,Plumerville,35.157466,-92.620435
1260,Pocahontas,36.282876,-90.996782
1261,Pollard,36.431725,-90.275123
1262,Ponca,36.066225,-93.401985
1263,Poplar Grove,34.539397,-90.881274
1264,Portia,36.080699,-91.068004
1265,Portland,33.231773,-91.513935
1266,Pottsville,35.239785,-93.056386
1267,Poughkeepsie,36.071526,-91.451575
1268,Powhatan,36.080044,-91.148214
1269,Poyen,34.350828,-92.599037
1270,Prairie Grove,35.991809,-94.316861
1271,Prattsville,34.307865,-92.513105
1272,Prescott,33.804029,-93.372544
1273,Prim,35.685733,-92.134596
1274,Proctor,35.083396,-90.255026
1275,Pyatt,36.245833,-92.844722
1276,Quitman,35.404988,-92.133334
1277,Ratcliff,35.276032,-93.842149
1278,Ravenden,36.202863,-91.25934
1279,Ravenden Springs,36.310384,-91.209433
1280,Rector,36.267177,-90.270201
1281,Redfield,34.452647,-92.17579
1282,Reydell,34.143281,-91.550395
1283,Reyno,36.362778,-90.753611
1284,Rison,33.945325,-92.118762
1285,Rivervale,35.673889,-90.34
1286,Roe,34.628592,-91.377058
1287,Rogers,36.336316,-94.114784
1288,Roland,34.88287,-92.519152
1289,Romance,35.215462,-92.06985
1290,Rose Bud,35.321447,-92.061988
1291,Rosie,35.663816,-91.534003
1292,Rosston,33.561693,-93.303891
1293,Rover,34.947522,-93.401728
1294,Royal,34.515049,-93.289734
1295,Rudy,35.539805,-94.237376
1296,Russell,35.3625,-91.5075
1297,Russellville,35.284208,-93.131476
1298,Saffell,35.917957,-91.297753
1299,Sage,36.042476,-91.824569
1300,Saint Charles,34.335296,-91.16808
1301,Saint Francis,36.454771,-90.144991
1302,Saint Joe,35.987707,-92.792828
1303,Saint Paul,35.849576,-93.734743
1304,Salado,35.703493,-91.597924
1305,Salem,36.365401,-91.836321
1306,Saratoga,33.759883,-93.876723
1307,Scotland,35.507956,-92.586652
1308,Scott,34.694215,-92.11566
1309,Scranton,35.330816,-93.539362
1310,Searcy,35.253512,-91.762931
1311,Sedgwick,35.985965,-90.880099
1312,Sheridan,34.316527,-92.365713
1313,Sherrill,34.358148,-91.993285
1314,Sherwood,34.859292,-92.214169
1315,Shirley,35.573259,-92.29751
1316,Sidney,35.991554,-91.634593
1317,Siloam Springs,36.179969,-94.528036
1318,Sims,34.646181,-93.674071
1319,Smackover,33.339831,-92.74425
1320,Smithville,36.090815,-91.274456
1321,Snow Lake,34.066466,-91.007083
1322,Solgohachia,35.270056,-92.675387
1323,Sparkman,33.902989,-92.810984
1324,Springdale,36.183521,-94.176216
1325,Springfield,35.274879,-92.54567
1326,Stamps,33.356877,-93.501307
1327,Star City,33.940528,-91.865343
1328,State University,35.914894,-90.454245
1329,Stephens,33.455044,-93.021391
1330,Story,34.668695,-93.537587
1331,Strawberry,35.972622,-91.375398
1332,Strong,33.119526,-92.362104
1333,Sturkie,36.463869,-91.989917
1334,Stuttgart,34.485358,-91.548742
1335,Subiaco,35.31346,-93.63869
1336,Success,36.453615,-90.728128
1337,Sulphur Rock,35.754466,-91.507333
1338,Sulphur Springs,36.479434,-94.452069
1339,Summers,36.013827,-94.500027
1340,Summit,36.252222,-92.690556
1341,Sweet Home,34.686389,-92.242222
1342,Swifton,35.827366,-91.126358
1343,Taylor,33.107957,-93.446019
1344,Texarkana,33.441667,-94.0375
1345,Thida,35.553556,-91.461823
1346,Thornton,33.767694,-92.468299
1347,Tichnor,34.089311,-91.243684
1348,Tillar,33.67479,-91.520287
1349,Tilly,35.6976,-92.844209
1350,Timbo,35.896338,-92.252536
1351,Tontitown,36.177778,-94.233333
1352,Traskwood,34.450791,-92.654734
1353,Trumann,35.668914,-90.518738
1354,Tucker,34.441442,-91.916265
1355,Tuckerman,35.730678,-91.200347
1356,Tumbling Shoals,35.546985,-91.970359
1357,Tupelo,35.393056,-91.230556
1358,Turner,34.476111,-91.018611
1359,Turrell,35.296936,-90.262979
1360,Tyronza,35.486477,-90.351944
1361,Ulm,34.579938,-91.51343
1362,Umpire,34.292129,-94.031377
1363,Uniontown,35.574822,-94.43487
1364,Urbana,33.103,-92.493
1365,Valley Springs,36.146823,-92.979937
1366,Van Buren,35.453989,-94.327762
1367,Vandervoort,34.379535,-94.369788
1368,Vanndale,35.313333,-90.773889
1369,Vendor,35.948062,-93.100815
1370,Vilonia,35.071895,-92.183235
1371,Viola,36.392429,-91.993198
1372,Violet Hill,36.162966,-91.847064
1373,Wabash,34.388611,-90.828611
1374,Wabbaseka,34.393552,-91.754948
1375,Walcott,36.043333,-90.671111
1376,Waldenburg,35.565278,-90.933611
1377,Waldo,33.360017,-93.294915
1378,Waldron,34.902642,-94.077243
1379,Walnut Ridge,36.077814,-90.952809
1380,Ward,34.95316,-91.900383
1381,Warm Springs,36.467531,-91.038707
1382,Warren,33.613983,-92.077824
1383,Washington,33.754596,-93.673529
1384,Watson,33.890737,-91.281455
1385,Weiner,35.629052,-90.928928
1386,Wesley,35.957264,-93.911478
1387,West Fork,35.908153,-94.230375
1388,West Helena,34.549635,-90.654531
1389,West Memphis,35.148442,-90.17792
1390,West Point,35.206944,-91.614167
1391,West Ridge,35.683056,-90.2625
1392,Western Grove,36.082994,-92.971649
1393,Wheatley,34.920703,-91.108645
1394,Whelen Springs,33.830833,-93.126111
1395,White Hall,34.257001,-92.089718
1396,Wickes,34.308806,-94.340257
1397,Wideman,36.198739,-92.001796
1398,Widener,35.059167,-90.629313
1399,Wilburn,35.454547,-91.907248
1400,Williford,36.245335,-91.379226
1401,Willisville,33.484731,-93.31212
1402,Wilmar,33.621296,-91.925697
1403,Wilmot,33.057557,-91.572283
1404,Wilson,35.566004,-90.042749
1405,Wilton,33.734794,-94.135746
1406,Winchester,33.752039,-91.543059
1407,Winslow,35.831206,-94.118657
1408,Winthrop,33.858321,-94.395174
1409,Wiseman,36.228022,-91.849499
1410,Witter,35.935583,-93.621
1411,Witts Springs,35.785514,-92.815518
1412,Woodson,34.529167,-92.210833
1413,Wooster,35.197308,-92.450998
1414,Wright,34.437656,-92.06308
1415,Wrightsville,34.602222,-92.216667
1416,Wynne,35.233036,-90.79303
1417,Yellville,36.225322,-92.724472
1418,Yorktown,34.017166,-91.796472
1419,Aguila,33.942778,-113.173333
1420,Ajo,32.373485,-112.858681
1421,Alpine,33.827878,-109.12829
1422,Amado,31.643759,-111.072233
1423,Apache Junction,33.3277,-111.3259
1424,Arivaca,31.574722,-111.331667
1425,Arizona City,32.755833,-111.670278
1426,Arlington,33.313317,-112.789058
1427,Ash Fork,35.214998,-112.502681
1428,Avondale,33.432114,-112.343754
1429,Bagdad,34.578484,-113.175535
1430,Bapchule,33.136389,-111.8725
1431,Bellemont,35.238056,-111.832778
1432,Benson,31.98826,-110.294113
1433,Bisbee,31.408557,-109.911736
1434,Black Canyon City,34.073197,-112.130956
1435,Blue,33.651245,-109.06849
1436,Blue Gap,36.100833,-110.225278
1437,Bouse,33.9325,-114.005
1438,Bowie,32.326389,-109.486389
1439,Buckeye,33.38896,-112.607728
1440,Bullhead City,35.1678,-114.543
1441,Bylas,33.126549,-110.11702
1442,Cameron,35.7163,-111.4088
1443,Camp Verde,34.569733,-111.855131
1444,Carefree,33.822222,-111.9175
1445,Casa Grande,32.892667,-111.756093
1446,Cashion,33.435278,-112.297222
1447,Catalina,32.497222,-110.923611
1448,Cave Creek,33.833333,-111.95
1449,Central,32.8675,-109.792222
1450,Chambers,35.143044,-109.37389
1451,Chandler,33.330091,-111.863156
1452,Chandler Heights,33.211944,-111.685556
1453,Chinle,36.130367,-109.603693
1454,Chino Valley,34.775739,-112.473099
1455,Chloride,35.414444,-114.198611
1456,Cibecue,34.044722,-110.484722
1457,Cibola,33.614886,-114.512204
1458,Clarkdale,34.747793,-112.033417
1459,Clay Springs,34.361667,-110.294722
1460,Claypool,33.411111,-110.841944
1461,Clifton,33.132343,-109.246199
1462,Cochise,32.097891,-109.92393
1463,Colorado City,36.976266,-112.952427
1464,Concho,34.445787,-109.674096
1465,Congress,34.176425,-112.76801
1466,Coolidge,32.957399,-111.534378
1467,Cornville,34.725593,-111.908556
1468,Cortaro,32.356111,-111.087778
1469,Cottonwood,34.705547,-112.009099
1470,Crown King,34.224062,-112.333971
1471,Dateland,32.867886,-113.463126
1472,Dennehotso,36.777286,-109.861001
1473,Dewey,34.536753,-112.256665
1474,Dolan Springs,35.774789,-114.547771
1475,Douglas,31.35111,-109.544698
1476,Dragoon,32.028056,-110.038056
1477,Duncan,32.793976,-109.129575
1478,Eagar,33.954571,-109.246933
1479,Eden,33.028629,-109.953682
1480,Ehrenberg,33.604167,-114.524444
1481,El Mirage,33.608153,-112.324147
1482,Elfrida,31.713891,-109.619277
1483,Elgin,31.66002,-110.611403
1484,Eloy,32.750929,-111.583275
1485,Flagstaff,35.185911,-111.661979
1486,Florence,32.996881,-111.361234
1487,Forest Lakes,34.431389,-110.593333
1488,Fort Apache,33.790556,-109.988056
1489,Fort Defiance,35.744444,-109.075833
1490,Fort Huachuca,31.558735,-110.344131
1491,Fort Mcdowell,33.611807,-111.68062
1492,Fort Mohave,35.0112,-114.5849
1493,Fort Thomas,33.036944,-109.964722
1494,Fountain Hills,33.608489,-111.723685
1495,Fredonia,36.904397,-112.497864
1496,Gadsden,32.554444,-114.784167
1497,Ganado,35.651844,-109.283168
1498,Gila Bend,32.93059,-112.746832
1499,Gilbert,33.35,-111.8092
1500,Glendale,33.531122,-112.176703
1501,Glendale Luke Afb,33.539993,-112.356186
1502,Globe,33.402426,-110.789247
1503,Golden Valley,35.2102,-114.2764
1504,Goodyear,33.436809,-112.383385
1505,Grand Canyon,36.054444,-112.138611
1506,Gray Mountain,35.6679,-111.484
1507,Green Valley,31.854271,-111.000253
1508,Greer,34.01,-109.458056
1509,Hackberry,35.369167,-113.726389
1510,Happy Jack,34.743333,-111.406667
1511,Hayden,33.004722,-110.784722
1512,Heber,34.4163,-110.568647
1513,Hereford,31.403545,-110.204728
1514,Higley,33.302382,-111.696926
1515,Holbrook,34.908451,-110.143412
1516,Hotevilla,36.211141,-110.566107
1517,Houck,35.283,-109.2063
1518,Huachuca City,31.663896,-110.333414
1519,Hualapai,35.540732,-113.295324
1520,Humboldt,34.500833,-112.236667
1521,Indian Wells,35.405556,-110.084167
1522,Iron Springs,34.673,-112.5211
1523,Jerome,34.748889,-112.113056
1524,Joseph City,34.955833,-110.333333
1525,Kaibeto,36.484798,-111.136973
1526,Kayenta,36.688327,-110.265229
1527,Keams Canyon,35.808206,-110.284461
1528,Kearny,33.059443,-110.91227
1529,Kingman,35.258379,-114.05689
1530,Kirkland,34.454149,-112.896641
1531,Kykotsmovi Village,35.579084,-110.368805
1532,Lake Havasu City,34.492879,-114.308083
1533,Lake Montezuma,34.632222,-111.777222
1534,Lakeside,34.166224,-109.986878
1535,Laveen,33.343572,-112.171618
1536,Leupp,35.336528,-110.992651
1537,Litchfield Park,33.494127,-112.380497
1538,Littlefield,36.866524,-113.913693
1539,Lukachukai,36.418111,-109.244614
1540,Lukeville,31.8825,-112.815
1541,Lupton,35.4086,-109.07
1542,Mammoth,32.723875,-110.643961
1543,Many Farms,36.408259,-109.634021
1544,Marana,32.404749,-111.273621
1545,Marble Canyon,36.956943,-111.558166
1546,Maricopa,32.987379,-112.075228
1547,Mayer,34.365535,-112.129551
1548,Mc Neal,31.502969,-109.630971
1549,Mcnary,34.073611,-109.856389
1550,Meadview,35.813733,-114.327696
1551,Mesa,33.43174,-111.846931
1552,Miami,33.431928,-110.881182
1553,Mohave Valley,34.892942,-114.595115
1554,Morenci,33.043593,-109.311517
1555,Mormon Lake,34.916896,-111.454914
1556,Morristown,33.772993,-112.548331
1557,Mount Lemmon,32.438056,-110.734167
1558,Munds Park,34.945556,-111.639444
1559,Naco,31.335278,-109.9475
1560,Nazlini,35.711389,-109.541389
1561,New River,33.9059,-112.1345
1562,Nogales,31.376969,-110.943508
1563,North Rim,36.945556,-112.525833
1564,Nutrioso,33.953056,-109.208611
1565,Oatman,35.026389,-114.382778
1566,Oracle,32.600506,-110.796126
1567,Overgaard,34.390833,-110.5525
1568,Page,36.896625,-111.43847
1569,Palo Verde,33.34848,-112.646662
1570,Paradise Valley,33.549439,-111.956546
1571,Parker,34.0254,-114.266342
1572,Parks,35.1898,-112.0187
1573,Patagonia,31.535317,-110.696774
1574,Paulden,35.03129,-112.544105
1575,Payson,34.219779,-111.287774
1576,Peach Springs,35.537795,-113.420199
1577,Pearce,31.966608,-109.795032
1578,Peoria,33.576135,-112.234424
1579,Peridot,33.478874,-110.37252
1580,Petrified Forest Natl Pk,34.773889,-109.887778
1581,Phoenix,33.451,-112.0685
1582,Picacho,32.716111,-111.494722
1583,Pima,32.909661,-109.856009
1584,Pine,34.390915,-111.473483
1585,Pinedale,34.3075,-110.250833
1586,Pinetop,34.117459,-109.919668
1587,Pinon,36.100243,-110.221077
1588,Pirtleville,31.356944,-109.561111
1589,Polacca,35.811812,-110.51114
1590,Pomerene,31.999444,-110.285556
1591,Poston,33.990556,-114.395556
1592,Prescott,34.629909,-113.022459
1593,Prescott Valley,34.61,-112.315
1594,Quartzsite,33.5675,-114.2731
1595,Queen Creek,33.238577,-111.643596
1596,Queen Creek,33.151087,-111.511058
1597,Red Rock,32.576111,-111.325
1598,Red Valley,35.915556,-109.029167
1599,Rillito,32.414722,-111.155556
1600,Rimrock,34.63799,-111.784222
1601,Rio Rico,31.4851,-110.9898
1602,Rio Verde,33.7316,-111.6811
1603,Rock Point,36.718056,-109.625278
1604,Roll,32.936635,-113.564287
1605,Roosevelt,33.635753,-110.974884
1606,Round Rock,36.502222,-109.553056
1607,Sacaton,33.097699,-111.775162
1608,Safford,32.829491,-109.626641
1609,Sahuarita,31.945169,-111.000154
1610,Saint David,31.897251,-110.215377
1611,Saint Johns,34.501008,-109.379617
1612,Saint Michaels,35.644722,-109.095
1613,Salome,33.748141,-113.571459
1614,San Carlos,33.310643,-110.395323
1615,San Luis,32.486944,-114.781389
1616,San Manuel,32.695831,-110.656788
1617,San Simon,32.208167,-109.367152
1618,Sanders,35.216389,-109.333056
1619,Sasabe,31.488611,-111.541389
1620,Scottsdale,33.521767,-111.904926
1621,Second Mesa,35.903782,-110.6472
1622,Sedona,34.8697,-111.7602
1623,Sedona,34.826645,-111.750627
1624,Seligman,35.321246,-112.954805
1625,Sells,32.031572,-111.922207
1626,Shonto,36.61594,-110.647743
1627,Show Low,34.060117,-110.054633
1628,Sierra Vista,31.536467,-110.266565
1629,Skull Valley,34.505278,-112.684722
1630,Snowflake,34.495859,-110.080742
1631,Solomon,32.8125,-109.633333
1632,Somerton,32.563398,-114.7127
1633,Sonoita,31.866154,-110.724418
1634,Springerville,34.119333,-109.304066
1635,Stanfield,32.882321,-111.965987
1636,Sun City,33.606104,-112.279701
1637,Sun City West,33.662576,-112.255434
1638,Sun Valley,34.250833,-111.254444
1639,Supai,36.224157,-112.693212
1640,Superior,33.288716,-111.09846
1641,Surprise,33.630028,-112.33143
1642,Tacna,32.6975,-113.952778
1643,Taylor,34.465,-110.090556
1644,Teec Nos Pos,36.779694,-109.359039
1645,Tempe,33.4273,-111.9307
1646,Temple Bar Marina,36.025556,-114.318056
1647,Thatcher,32.819902,-109.730245
1648,Tolleson,33.434686,-112.277444
1649,Tombstone,31.721598,-110.058449
1650,Tonalea,35.934555,-110.882042
1651,Tonopah,33.422797,-112.952785
1652,Tonto Basin,33.930278,-111.308056
1653,Topawa,31.813889,-111.825
1654,Topock,34.778388,-114.481666
1655,Tortilla Flat,33.526389,-111.389167
1656,Tsaile,36.307075,-109.217627
1657,Tuba City,36.103729,-111.268566
1658,Tubac,31.6125,-111.045278
1659,Tucson,32.213873,-110.969445
1660,Tumacacori,31.594194,-111.039693
1661,Vail,32.035926,-110.88375
1662,Valentine,35.3717,-113.8213
1663,Valley Farms,32.988333,-111.446667
1664,Vernon,34.2575,-109.692222
1665,Waddell,33.567285,-112.43869
1666,Wellton,32.749251,-114.176616
1667,Wenden,33.8225,-113.540833
1668,White Mountain Lake,34.348333,-109.996944
1669,Whiteriver,33.836944,-109.963611
1670,Wickenburg,33.968611,-112.728889
1671,Wikieup,34.703333,-113.610556
1672,Willcox,32.372977,-109.863111
1673,Williams,35.249842,-112.190623
1674,Willow Beach,35.8316,-114.4441
1675,Window Rock,35.680556,-109.051944
1676,Winkelman,33.00572,-110.772682
1677,Winslow,35.16078,-110.511382
1678,Wittmann,33.726425,-112.446578
1679,Woodruff,34.513333,-110.077778
1680,Yarnell,34.414076,-112.62166
1681,Young,34.101389,-110.963056
1682,Youngtown,33.590751,-112.301305
1683,Yucca,34.872222,-114.148611
1684,Yuma,32.701507,-114.642362
1685,Acampo,38.200413,-121.218576
1686,Acton,34.483541,-118.195929
1687,Adelanto,34.584128,-117.424189
1688,Adin,41.21751,-120.943193
1689,Agoura Hills,34.157163,-118.75718
1690,Aguanga,33.447306,-116.799693
1691,Ahwahnee,37.407631,-119.723251
1692,Alameda,37.764783,-122.260516
1693,Alamo,37.853695,-122.022868
1694,Albany,37.890045,-122.295394
1695,Albion,39.215934,-123.721366
1696,Alderpoint,40.176389,-123.610556
1697,Alhambra,34.091436,-118.129288
1698,Aliso Viejo,33.572367,-117.708906
1699,Alleghany,39.512698,-120.727176
1700,Alpaugh,35.887778,-119.486389
1701,Alpine,32.828161,-116.754328
1702,Alta,39.228032,-120.773165
1703,Altadena,34.191187,-118.13919
1704,Altaville,38.076944,-120.552222
1705,Alturas,41.476742,-120.545584
1706,Alviso,37.427659,-121.968597
1707,Amador City,38.419444,-120.823056
1708,Amboy,34.599012,-115.774907
1709,American Canyon,38.175,-122.259722
1710,Anaheim,33.842679,-117.954035
1711,Anderson,40.457432,-122.328218
1712,Angels Camp,38.064011,-120.55437
1713,Angelus Oaks,34.153149,-116.948482
1714,Angwin,38.576906,-122.447732
1715,Annapolis,38.714485,-123.314214
1716,Antelope,38.708333,-121.328889
1717,Antioch,37.993917,-121.808906
1718,Anza,33.568812,-116.71355
1719,Apple Valley,34.529081,-117.2132
1720,Applegate,38.995487,-120.990511
1721,Aptos,36.977222,-121.898333
1722,Arbuckle,39.013787,-122.027405
1723,Arcadia,34.132389,-118.026374
1724,Arcata,40.866667,-124.081667
1725,Armona,36.309459,-119.705279
1726,Arnold,38.24175,-120.342231
1727,Aromas,36.878522,-121.639781
1728,Arroyo Grande,35.11449,-120.57289
1729,Artesia,33.866568,-118.068046
1730,Artois,39.619722,-122.192778
1731,Arvin,35.196629,-118.8336
1732,Atascadero,35.475439,-120.663838
1733,Atherton,37.456255,-122.200198
1734,Atwater,37.353154,-120.600837
1735,Atwood,33.865556,-117.83
1736,Auberry,37.072635,-119.457202
1737,Auburn,38.9828,-121.0938
1738,Avalon,33.331963,-118.343706
1739,Avenal,35.987667,-120.122716
1740,Avery,38.204444,-120.368889
1741,Avila Beach,35.18,-120.730833
1742,Azusa,34.12476,-117.903083
1743,Badger,36.631389,-119.012222
1744,Baker,35.360573,-116.063754
1745,Bakersfield,35.386611,-119.017063
1746,Baldwin Park,34.084245,-117.969539
1747,Ballico,37.452455,-120.700152
1748,Bangor,39.424862,-121.350499
1749,Banning,33.92816,-116.889928
1750,Bard,32.789167,-114.555278
1751,Barstow,34.89145,-117.038702
1752,Bass Lake,37.324359,-119.556839
1753,Bayside,40.822381,-124.027305
1754,Beale Afb,39.145833,-121.590278
1755,Beaumont,33.950429,-116.970079
1756,Beckwourth,39.820278,-120.377778
1757,Belden,39.921746,-121.325924
1758,Bell,33.969177,-118.17205
1759,Bell Gardens,33.9775,-118.186111
1760,Bella Vista,40.740945,-122.07245
1761,Bellflower,33.886676,-118.126527
1762,Belmont,37.517433,-122.292671
1763,Belvedere Tiburon,37.889885,-122.472627
1764,Ben Lomond,37.086183,-122.083869
1765,Benicia,38.068459,-122.161392
1766,Benton,37.798099,-118.498526
1767,Berkeley,37.8691,-122.2696
1768,Berry Creek,39.638394,-121.385467
1769,Bethel Island,38.015,-121.639444
1770,Beverly Hills,34.0732,-118.3927
1771,Bieber,41.121389,-121.143056
1772,Big Bar,40.74796,-123.229006
1773,Big Bear City,34.242233,-116.920412
1774,Big Bear Lake,34.243889,-116.910556
1775,Big Bend,41.020833,-121.91
1776,Big Creek,37.205,-119.245
1777,Big Oak Flat,37.823611,-120.257222
1778,Big Pine,37.167857,-118.291597
1779,Big Sur,36.245798,-121.700897
1780,Biggs,39.414918,-121.695873
1781,Biola,36.802222,-120.015278
1782,Birds Landing,38.150402,-121.844318
1783,Bishop,37.386301,-118.44156
1784,Blairsden-graeagle,39.784745,-120.627397
1785,Blocksburg,40.276111,-123.635278
1786,Bloomington,34.066198,-117.399295
1787,Blue Jay,34.246111,-117.208889
1788,Blue Lake,40.928701,-123.896696
1789,Blythe,33.605715,-114.597131
1790,Bodega,38.339264,-122.951364
1791,Bodega Bay,38.330921,-123.037308
1792,Bodfish,35.587046,-118.484656
1793,Bolinas,37.907875,-122.694655
1794,Bonita,32.667143,-117.022065
1795,Bonsall,33.294033,-117.18969
1796,Boonville,39.035007,-123.401954
1797,Boron,35.003748,-117.662921
1798,Borrego Springs,33.238649,-116.351394
1799,Boulder Creek,37.149934,-122.133053
1800,Boulevard,32.671934,-116.319982
1801,Boyes Hot Springs,38.313889,-122.480833
1802,Bradley,35.809255,-120.972793
1803,Brandeis,34.3216,-118.7027
1804,Branscomb,39.700531,-123.554982
1805,Brawley,32.979181,-115.529613
1806,Brea,33.9252,-117.8895
1807,Brentwood,37.932415,-121.689427
1808,Bridgeport,38.256601,-119.208025
1809,Bridgeville,40.468566,-123.549351
1810,Brisbane,37.681104,-122.400118
1811,Brookdale,37.106389,-122.105
1812,Brooks,38.739277,-122.133391
1813,Browns Valley,39.284428,-121.346482
1814,Brownsville,39.452534,-121.261179
1815,Bryn Mawr,34.048333,-117.23
1816,Buellton,34.62093,-120.192233
1817,Buena Park,33.840607,-118.011359
1818,Burbank,34.186238,-118.300898
1819,Burlingame,37.575884,-122.362952
1820,Burney,40.894927,-121.655036
1821,Burnt Ranch,40.772238,-123.461248
1822,Burrel,36.488333,-119.984167
1823,Burson,38.183889,-120.889444
1824,Butte City,39.456348,-121.978046
1825,Buttonwillow,35.403268,-119.465926
1826,Byron,37.902616,-121.602211
1827,Cabazon,33.908583,-116.773948
1828,Calabasas,34.141854,-118.664103
1829,Calexico,32.683227,-115.502815
1830,Caliente,35.356798,-118.410264
1831,California City,35.125833,-117.985
1832,California Hot Springs,35.892422,-118.646317
1833,Calimesa,33.994586,-117.04304
1834,Calipatria,33.166956,-115.511402
1835,Calistoga,38.582305,-122.581384
1836,Callahan,41.383257,-122.764046
1837,Calpella,39.150278,-123.206667
1838,Calpine,39.651699,-120.4442
1839,Camarillo,34.231328,-119.046361
1840,Cambria,35.556568,-121.084029
1841,Camino,38.744938,-120.671979
1842,Camp Meeker,38.425278,-122.958333
1843,Camp Nelson,36.130278,-118.817222
1844,Camp Pendleton,33.327929,-117.409452
1845,Campbell,37.280007,-121.95539
1846,Campo,32.660491,-116.490459
1847,Campo Seco,38.227222,-120.852222
1848,Camptonville,39.450784,-121.023066
1849,Canby,41.466358,-120.921769
1850,Canoga Park,34.199257,-118.59828
1851,Cantil,35.282558,-117.993868
1852,Cantua Creek,36.492123,-120.335252
1853,Canyon,37.831667,-122.186667
1854,Canyon Country,34.426203,-118.449011
1855,Canyon Dam,40.207958,-121.156324
1856,Capay,38.696964,-122.100993
1857,Capistrano Beach,33.459115,-117.662657
1858,Capitola,36.977359,-121.952145
1859,Cardiff By The Sea,33.025265,-117.274371
1860,Carlotta,40.507027,-123.974287
1861,Carlsbad,33.160241,-117.324998
1862,Carmel,36.4478,-121.8395
1863,Carmel By The Sea,36.5546,-121.9203
1864,Carmel Valley,36.478709,-121.724356
1865,Carmichael,38.628393,-121.328683
1866,Carnelian Bay,39.231937,-120.075328
1867,Carpinteria,34.403589,-119.518257
1868,Carson,33.822968,-118.268352
1869,Caruthers,36.535847,-119.844581
1870,Casmalia,34.838056,-120.530278
1871,Caspar,39.365102,-123.798489
1872,Cassel,40.907832,-121.524497
1873,Castaic,34.488889,-118.621944
1874,Castella,41.138611,-122.316667
1875,Castro Valley,37.701527,-122.078183
1876,Castroville,36.77142,-121.747368
1877,Cathedral City,33.809839,-116.466497
1878,Catheys Valley,37.441409,-120.069017
1879,Cayucos,35.444606,-120.890791
1880,Cazadero,38.566335,-123.182896
1881,Cedar Glen,34.253889,-117.163889
1882,Cedar Ridge,39.198889,-121.02
1883,Cedarpines Park,34.25,-117.325
1884,Cedarville,41.475871,-120.151551
1885,Ceres,37.588097,-120.949936
1886,Cerritos,33.858333,-118.063889
1887,Challenge,39.4875,-121.2225
1888,Chatsworth,34.258253,-118.591357
1889,Chester,40.297457,-121.227338
1890,Chicago Park,39.145278,-120.966111
1891,Chico,39.756466,-121.851806
1892,Chilcoot,39.805683,-120.175212
1893,Chinese Camp,37.856829,-120.406673
1894,Chino,34.012222,-117.688056
1895,Chino Hills,33.979735,-117.730791
1896,Chowchilla,37.101371,-120.269077
1897,Chualar,36.595042,-121.431964
1898,Chula Vista,32.64,-117.0833
1899,Cima,35.237778,-115.498333
1900,Citrus Heights,38.694571,-121.269211
1901,City Of Industry,34.0197,-117.9577
1902,Claremont,34.109167,-117.718293
1903,Clarksburg,38.395963,-121.556853
1904,Clayton,37.915442,-121.909967
1905,Clearlake,38.957138,-122.636089
1906,Clearlake Oaks,39.034838,-122.66873
1907,Clearlake Park,38.967778,-122.653889
1908,Clements,38.190833,-121.087222
1909,Clio,39.74326,-120.560458
1910,Clipper Mills,39.532778,-121.156389
1911,Cloverdale,38.799396,-123.011725
1912,Clovis,36.8243,-119.6824
1913,Coachella,33.674965,-116.177231
1914,Coalinga,36.162435,-120.348928
1915,Coarsegold,37.221378,-119.745545
1916,Cobb,38.822222,-122.721944
1917,Coleville,38.502903,-119.482784
1918,Colfax,39.076936,-120.960163
1919,Coloma,38.8,-120.889167
1920,Colton,34.057964,-117.318577
1921,Columbia,38.03975,-120.405552
1922,Colusa,39.21311,-122.011563
1923,Comptche,39.249919,-123.585652
1924,Compton,33.890654,-118.239044
1925,Concord,37.950434,-122.026296
1926,Cool,38.903633,-120.972963
1927,Copperopolis,37.937246,-120.638374
1928,Corcoran,36.086455,-119.560665
1929,Corning,39.929566,-122.195991
1930,Corona,33.8815,-117.6078
1931,Corona Del Mar,33.602066,-117.874331
1932,Coronado,32.68069,-117.169823
1933,Corte Madera,37.922256,-122.513202
1934,Costa Mesa,33.677711,-117.909623
1935,Cotati,38.325918,-122.704831
1936,Cottonwood,40.369072,-122.337463
1937,Coulterville,37.738642,-119.985813
1938,Courtland,38.305756,-121.554297
1939,Covelo,39.801864,-123.215015
1940,Covina,34.097162,-117.906544
1941,Coyote,37.216721,-121.746021
1942,Crescent City,41.785402,-124.178448
1943,Crescent Mills,40.081915,-120.881993
1944,Cressey,37.419722,-120.666389
1945,Crest Park,34.233889,-117.195556
1946,Crestline,34.241944,-117.284722
1947,Creston,35.491543,-120.554238
1948,Crockett,38.051865,-122.217659
1949,Crows Landing,37.438956,-121.019893
1950,Culver City,33.994927,-118.399115
1951,Cupertino,37.317363,-122.038604
1952,Cutler,36.524266,-119.287023
1953,Cutten,40.77,-124.141667
1954,Cypress,33.818613,-118.038696
1955,Daggett,34.86677,-116.887555
1956,Daly City,37.7074,-122.4587
1957,Dana Point,33.476964,-117.700483
1958,Danville,37.820833,-121.906667
1959,Dardanelle,38.341111,-119.832778
1960,Darwin,36.268056,-117.590833
1961,Davenport,37.06306,-122.225735
1962,Davis,38.554817,-121.748495
1963,Davis Creek,41.862555,-120.323549
1964,Death Valley,36.467165,-116.893682
1965,Deer Park,38.575833,-122.448889
1966,Del Mar,32.971474,-117.237314
1967,Del Rey,36.654306,-119.59291
1968,Delano,35.771511,-119.24594
1969,Delhi,37.428629,-120.775489
1970,Denair,37.538419,-120.796474
1971,Descanso,32.872971,-116.602732
1972,Desert Center,33.604941,-115.052603
1973,Desert Hot Springs,33.904973,-116.366222
1974,Diablo,37.83883,-121.960951
1975,Diamond Bar,34.006585,-117.809822
1976,Diamond Springs,38.66302,-120.836071
1977,Dillon Beach,38.250833,-122.964167
1978,Dinuba,36.534931,-119.39087
1979,Discovery Bay,37.9085357,-121.6002291
1980,Dixon,38.458691,-121.815825
1981,Dobbins,39.371469,-121.234386
1982,Dorris,41.9675,-121.916944
1983,Dos Palos,37.00253,-120.633348
1984,Dos Rios,39.709298,-123.298294
1985,Douglas City,40.634151,-122.923867
1986,Douglas Flat,38.087222,-120.471944
1987,Downey,33.94,-118.131667
1988,Downieville,39.570265,-120.677767
1989,Doyle,40.000799,-120.107693
1990,Drytown,38.393056,-120.801389
1991,Duarte,34.139444,-117.976389
1992,Dublin,37.716597,-121.922589
1993,Ducor,35.891667,-119.046389
1994,Dulzura,32.615172,-116.728523
1995,Duncans Mills,38.453889,-123.053889
1996,Dunlap,36.744635,-119.089931
1997,Dunnigan,38.893671,-121.996577
1998,Dunsmuir,41.212439,-122.273397
1999,Durham,39.641599,-121.791983
2000,Dutch Flat,39.197788,-120.826224
2001,Eagleville,41.316389,-120.114722
2002,Earlimart,35.854195,-119.253406
2003,Earp,34.149142,-114.33928
2004,East Irvine,33.675833,-117.758889
2005,Echo Lake,38.810254,-120.070498
2006,Edison,35.3475,-118.870833
2007,Edwards,34.930507,-117.915384
2008,El Cajon,32.777726,-116.919055
2009,El Centro,32.789332,-115.566508
2010,El Cerrito,37.915633,-122.298521
2011,El Dorado,38.682778,-120.846667
2012,El Dorado Hills,38.6851,-121.0685
2013,El Granada,37.502778,-122.468333
2014,El Monte,34.079142,-118.037108
2015,El Nido,37.13452,-120.483235
2016,El Portal,37.674722,-119.783056
2017,El Segundo,33.924275,-118.411924
2018,El Sobrante,37.969287,-122.290092
2019,El Toro,33.625833,-117.692778
2020,El Verano,38.297778,-122.490556
2021,Eldridge,38.348889,-122.509722
2022,Elk,39.160402,-123.723961
2023,Elk Creek,39.598914,-122.557244
2024,Elk Grove,38.412744,-121.359914
2025,Elmira,38.348333,-121.908889
2026,Elverta,38.716424,-121.431038
2027,Emeryville,37.836466,-122.280363
2028,Emigrant Gap,39.286907,-120.662902
2029,Empire,37.638333,-120.901111
2030,Encinitas,33.036944,-117.291111
2031,Encino,34.165479,-118.517542
2032,Escalon,37.804428,-120.990044
2033,Escondido,33.110117,-117.069987
2034,Esparto,38.694191,-122.021391
2035,Essex,34.560626,-115.280344
2036,Etna,41.468303,-122.914189
2037,Eureka,40.776237,-124.155892
2038,Exeter,36.304055,-119.12928
2039,Fair Oaks,38.655408,-121.261065
2040,Fairfax,37.988289,-122.593711
2041,Fairfield,38.267084,-122.03565
2042,Fall River Mills,41.03931,-121.460562
2043,Fallbrook,33.369015,-117.228952
2044,Farmersville,36.300169,-119.205357
2045,Farmington,37.944771,-120.852343
2046,Fawnskin,34.268056,-116.941667
2047,Feather Falls,39.593333,-121.255278
2048,Fellows,35.202579,-119.564757
2049,Felton,37.063124,-122.062162
2050,Ferndale,40.574488,-124.252268
2051,Fiddletown,38.53141,-120.715926
2052,Fields Landing,40.724722,-124.213889
2053,Fillmore,34.402557,-118.904071
2054,Finley,39.004444,-122.874444
2055,Firebaugh,36.8651,-120.470048
2056,Fish Camp,37.51692,-119.642005
2057,Five Points,36.429444,-120.101944
2058,Floriston,39.445746,-120.025421
2059,Flournoy,39.920556,-122.435
2060,Folsom,38.687885,-121.140927
2061,Fontana,34.0589,-117.4383
2062,Foothill Ranch,33.666822,-117.664995
2063,Forbestown,39.541712,-121.213443
2064,Forest Falls,34.08805,-116.914147
2065,Forest Knolls,38.012178,-122.69074
2066,Forest Ranch,40.129931,-121.500205
2067,Foresthill,39.00229,-120.861127
2068,Forestville,38.489442,-122.896683
2069,Forks Of Salmon,41.256978,-123.09781
2070,Fort Bidwell,41.864441,-120.161983
2071,Fort Bragg,39.437452,-123.78835
2072,Fort Dick,41.8382,-124.166
2073,Fort Irwin,35.40148,-116.644759
2074,Fort Jones,41.617027,-122.883207
2075,Fortuna,40.584931,-124.140654
2076,Fountain Valley,33.710762,-117.952318
2077,Fowler,36.628153,-119.671025
2078,Frazier Park,34.822778,-118.943889
2079,Freedom,36.936483,-121.776761
2080,Fremont,37.560493,-121.999935
2081,French Camp,37.877982,-121.282704
2082,French Gulch,40.703517,-122.622868
2083,Fresno,36.841107,-119.800359
2084,Friant,37.002416,-119.696501
2085,Fullerton,33.8796,-117.8951
2086,Fulton,38.494732,-122.77608
2087,Galt,38.269846,-121.29383
2088,Garberville,40.100278,-123.793889
2089,Garden Grove,33.7857,-117.9318
2090,Garden Valley,38.866495,-120.856672
2091,Gardena,33.892463,-118.296122
2092,Gasquet,41.862768,-123.912467
2093,Gazelle,41.510485,-122.537122
2094,Georgetown,38.919892,-120.793388
2095,Gerber,40.042997,-122.164937
2096,Geyserville,38.700398,-122.888921
2097,Gilroy,37.016005,-121.57825
2098,Glen Ellen,38.362538,-122.521002
2099,Glencoe,38.351557,-120.594546
2100,Glendale,34.171606,-118.289892
2101,Glendora,34.128663,-117.855155
2102,Glenhaven,38.99008,-122.522035
2103,Glenn,39.606871,-122.038443
2104,Glennville,35.737677,-118.71693
2105,Gold Run,39.175102,-120.856909
2106,Goleta,34.4901,-120.0384
2107,Gonzales,36.490038,-121.410347
2108,Goodyears Bar,39.572891,-120.820698
2109,Goshen,36.351111,-119.419167
2110,Granada Hills,34.277068,-118.4992
2111,Grand Terrace,34.033889,-117.312778
2112,Granite Bay,38.7438,-121.1898
2113,Grass Valley,39.207617,-121.037401
2114,Graton,38.434971,-122.866766
2115,Green Valley Lake,34.237778,-117.079722
2116,Greenbrae,37.950599,-122.535501
2117,Greenfield,36.320178,-121.24507
2118,Greenview,41.550833,-122.904444
2119,Greenville,40.142404,-120.927299
2120,Greenwood,38.936234,-120.916589
2121,Grenada,41.612512,-122.525829
2122,Gridley,39.358855,-121.689777
2123,Grimes,39.074444,-121.892778
2124,Grizzly Flats,38.628665,-120.542508
2125,Groveland,37.840899,-120.191809
2126,Grover Beach,35.120969,-120.617348
2127,Guadalupe,34.959989,-120.570329
2128,Gualala,38.803619,-123.553975
2129,Guasti,34.065,-117.585556
2130,Guatay,32.848889,-116.556389
2131,Guerneville,38.509573,-122.994416
2132,Guinda,38.816568,-122.189659
2133,Gustine,37.242456,-121.003965
2134,Hacienda Heights,33.997741,-117.965205
2135,Half Moon Bay,37.479057,-122.445929
2136,Hamilton City,39.742778,-122.0125
2137,Hanford,36.331419,-119.649094
2138,Happy Camp,41.801802,-123.388045
2139,Harbor City,33.797006,-118.299114
2140,Harmony,35.508611,-121.021667
2141,Hat Creek,40.767673,-121.463687
2142,Hathaway Pines,38.191944,-120.364444
2143,Hawaiian Gardens,33.82958,-118.072964
2144,Hawthorne,33.913214,-118.346978
2145,Hayfork,40.550431,-123.163416
2146,Hayward,37.6564,-122.0957
2147,Healdsburg,38.61553,-122.856529
2148,Heber,32.698918,-115.428281
2149,Helendale,34.749859,-117.33666
2150,Helm,36.499231,-120.093598
2151,Hemet,33.741613,-116.972974
2152,Herald,38.31282,-121.158898
2153,Hercules,38.006649,-122.263702
2154,Herlong,40.148492,-120.171271
2155,Hermosa Beach,33.864309,-118.395511
2156,Hesperia,34.426389,-117.3
2157,Hickman,37.619989,-120.71722
2158,Hidden Valley Lake,39.962583,-123.814656
2159,Highland,34.126969,-117.208717
2160,Hilmar,37.408377,-120.856144
2161,Hinkley,34.92788,-117.180867
2162,Hollister,36.848404,-121.387101
2163,Holt,37.934444,-121.426111
2164,Holtville,32.810387,-115.377456
2165,Holy City,37.156944,-121.977778
2166,Homeland,33.74528,-117.111845
2167,Homewood,39.078157,-120.179035
2168,Honeydew,40.244444,-124.121667
2169,Hood,38.368333,-121.516389
2170,Hoopa,41.105937,-123.692754
2171,Hopland,38.972056,-123.116956
2172,Hornbrook,41.907738,-122.526528
2173,Hornitos,37.492226,-120.226443
2174,Hughson,37.594364,-120.865281
2175,Hume,36.785,-118.912778
2176,Huntington Beach,33.7152,-118.0088
2177,Huntington Park,33.976879,-118.216053
2178,Huron,36.237144,-120.101964
2179,Hyampom,40.6175,-123.451389
2180,Hydesville,40.549576,-124.084489
2181,Idyllwild,33.730433,-116.710665
2182,Igo,40.431795,-122.654023
2183,Imperial,32.846954,-115.572984
2184,Imperial Beach,32.578289,-117.11478
2185,Independence,36.839578,-118.204808
2186,Indian Wells,33.716334,-116.338129
2187,Indio,33.721899,-116.235729
2188,Inglewood,33.955048,-118.355575
2189,Inverness,38.083514,-122.856774
2190,Inyokern,35.674498,-117.834844
2191,Ione,38.351882,-120.943265
2192,Irvine,33.7357,-117.7672
2193,Isleton,38.155392,-121.604858
2194,Ivanhoe,36.385622,-119.218884
2195,Jackson,38.357514,-120.754877
2196,Jacumba,32.624934,-116.195184
2197,Jamestown,37.906544,-120.494567
2198,Jamul,32.716289,-116.832332
2199,Janesville,40.296325,-120.50982
2200,Jenner,38.474093,-123.135379
2201,Johannesburg,35.370655,-117.637325
2202,Jolon,35.970833,-121.175
2203,Joshua Tree,34.150163,-116.303763
2204,Julian,33.053355,-116.565812
2205,Junction City,40.768187,-123.062671
2206,June Lake,37.777324,-119.082492
2207,Kaweah,36.469722,-118.9175
2208,Keeler,36.487222,-117.873056
2209,Keene,35.237502,-118.607563
2210,Kelseyville,38.946164,-122.781707
2211,Kentfield,37.952222,-122.556111
2212,Kenwood,38.416794,-122.554679
2213,Kerman,36.730576,-120.072444
2214,Kernville,35.755005,-118.404723
2215,Kettleman City,36.021501,-119.964361
2216,Keyes,37.556667,-120.914444
2217,King City,36.202776,-121.127329
2218,Kings Beach,39.240119,-120.023287
2219,Kings Canyon National Pk,36.780601,-119.068201
2220,Kingsburg,36.508047,-119.543298
2221,Kirkwood,38.702778,-120.071667
2222,Kit Carson,38.431944,-120.570833
2223,Klamath,41.542075,-124.033907
2224,Klamath River,41.863699,-122.819693
2225,Kneeland,40.71262,-123.946421
2226,Knights Landing,38.822032,-121.720003
2227,Knightsen,37.9818,-121.672149
2228,Korbel,40.824369,-123.859413
2229,Kyburz,38.780036,-120.25529
2230,La Canada Flintridge,34.209282,-118.199008
2231,La Crescenta,34.231619,-118.245687
2232,La Grange,37.678915,-120.358131
2233,La Habra,33.932173,-117.949703
2234,La Honda,37.272285,-122.293889
2235,La Jolla,32.845488,-117.25208
2236,La Mesa,32.760431,-117.011541
2237,La Mirada,33.8953,-118.0024
2238,La Palma,33.849017,-118.040618
2239,La Puente,34.029428,-117.934098
2240,La Quinta,34.3278,-118.6406
2241,La Verne,34.115905,-117.77077
2242,Ladera Ranch,33.5554,-117.6384
2243,Lafayette,37.896105,-122.11194
2244,Laguna Beach,33.542927,-117.772351
2245,Laguna Hills,33.60028,-117.70854
2246,Laguna Niguel,33.5225,-117.706667
2247,Laguna Woods,33.6087,-117.7311
2248,Lagunitas,38.013929,-122.701576
2249,Lake Arrowhead,34.248333,-117.188333
2250,Lake City,41.668208,-120.181424
2251,Lake Elsinore,33.659816,-117.348535
2252,Lake Forest,33.640015,-117.68819
2253,Lake Hughes,34.668297,-118.444719
2254,Lake Isabella,35.617889,-118.441256
2255,Lakehead,40.958775,-122.359281
2256,Lakeport,39.055147,-122.915082
2257,Lakeshore,37.253,-119.1738
2258,Lakeside,32.856181,-116.920089
2259,Lakewood,33.8517,-118.1328
2260,Lamont,35.257059,-118.912419
2261,Lancaster,34.690888,-118.149129
2262,Landers,34.403056,-116.591667
2263,Larkspur,37.936743,-122.536202
2264,Lathrop,37.820897,-121.282652
2265,Laton,36.437834,-119.715565
2266,Lawndale,33.887908,-118.351014
2267,Laytonville,39.667811,-123.486862
2268,Le Grand,37.234175,-120.251737
2269,Lebec,34.828862,-118.879126
2270,Lee Vining,37.988988,-119.123413
2271,Leggett,39.865833,-123.713056
2272,Lemon Cove,36.396084,-119.004986
2273,Lemon Grove,32.73323,-117.032646
2274,Lemoore,36.309535,-119.831017
2275,Lewiston,40.745986,-122.842591
2276,Likely,41.230556,-120.503056
2277,Lincoln,38.904035,-121.295541
2278,Lincoln Acres,32.667778,-117.071944
2279,Linden,38.021869,-121.074442
2280,Lindsay,36.209551,-119.088427
2281,Litchfield,40.362788,-120.253975
2282,Little Lake,35.936667,-117.905833
2283,Little River,39.271042,-123.753089
2284,Littlerock,34.547372,-117.957405
2285,Live Oak,39.266904,-121.66393
2286,Livermore,37.68299,-121.762983
2287,Livingston,37.376168,-120.716156
2288,Llano,34.495914,-117.798841
2289,Lockeford,38.162436,-121.135611
2290,Lockwood,35.989287,-121.205946
2291,Lodi,38.123579,-121.263034
2292,Loleta,40.6531,-124.228826
2293,Loma Linda,34.0524,-117.2618
2294,Loma Mar,37.254437,-122.281996
2295,Lomita,33.793339,-118.31693
2296,Lompoc,34.658349,-120.450605
2297,Lone Pine,36.579781,-118.057824
2298,Long Barn,38.20336,-120.001159
2299,Long Beach,33.7705,-118.1885
2300,Lookout,41.208056,-121.154167
2301,Loomis,38.80711,-121.169826
2302,Los Alamitos,33.795291,-118.069891
2303,Los Alamos,34.744444,-120.277222
2304,Los Altos,37.381432,-122.125754
2305,Los Angeles,33.973093,-118.247896
2306,Los Banos,37.06266,-120.854387
2307,Los Gatos,37.211677,-121.978684
2308,Los Gatos,37.1536,-121.9812
2309,Los Molinos,40.049735,-122.099175
2310,Los Olivos,34.667778,-120.113889
2311,Los Osos,35.317203,-120.833261
2312,Lost Hills,35.613111,-119.721573
2313,Lotus,38.801712,-120.928864
2314,Lower Lake,38.860682,-122.575426
2315,Loyalton,39.662974,-120.229662
2316,Lucerne,39.083393,-122.785125
2317,Lucerne Valley,34.44695,-116.918857
2318,Ludlow,34.901779,-116.386202
2319,Lynwood,33.924076,-118.201289
2320,Lytle Creek,34.255755,-117.518613
2321,Macdoel,41.883028,-121.944472
2322,Mad River,40.352352,-123.413994
2323,Madeline,41.051111,-120.474444
2324,Madera,36.9528,-119.8806
2325,Madison,38.680164,-121.972129
2326,Magalia,39.831728,-121.597455
2327,Malibu,34.0382,-118.7082
2328,Mammoth Lakes,37.642361,-118.976383
2329,Manchester,38.992088,-123.670962
2330,Manhattan Beach,33.889594,-118.399562
2331,Manteca,37.80875,-121.21856
2332,Manton,40.433125,-121.836521
2333,March Air Reserve Base,33.895556,-117.276111
2334,Maricopa,35.038353,-119.407661
2335,Marina,36.684922,-121.793383
2336,Marina Del Rey,33.977876,-118.452475
2337,Mariposa,37.503918,-119.892496
2338,Markleeville,38.76473,-119.807275
2339,Marshall,38.176221,-122.890011
2340,Martell,38.366944,-120.795
2341,Martinez,37.993246,-122.111693
2342,Marysville,39.141653,-121.522467
2343,Mather,38.549224,-121.282394
2344,Maxwell,39.292494,-122.195161
2345,Maywood,33.988992,-118.187685
2346,Mc Farland,35.675779,-119.227156
2347,Mc Kittrick,35.303097,-119.636627
2348,Mcarthur,41.111407,-121.214896
2349,Mcclellan,38.655416,-121.40311
2350,Mccloud,41.252108,-122.13562
2351,Mckinleyville,40.875833,-124.083056
2352,Meadow Valley,39.918488,-121.05629
2353,Meadow Vista,39.003101,-121.029155
2354,Mecca,33.571667,-116.076389
2355,Mendocino,39.323212,-123.78846
2356,Mendota,36.742365,-120.409287
2357,Menifee,33.664744,-117.1743
2358,Menlo Park,37.453401,-122.179136
2359,Mentone,34.077372,-117.112581
2360,Merced,37.300724,-120.461668
2361,Meridian,39.116812,-121.88138
2362,Mi Wuk Village,38.105576,-120.131762
2363,Middletown,38.782504,-122.64352
2364,Midpines,37.571009,-119.946548
2365,Midway City,33.744794,-117.983539
2366,Milford,40.182763,-120.389508
2367,Mill Creek,40.326389,-121.521667
2368,Mill Valley,37.895757,-122.533885
2369,Millbrae,37.600382,-122.401985
2370,Millville,40.565316,-122.111088
2371,Milpitas,37.436491,-121.892885
2372,Mineral,40.328826,-121.524807
2373,Mira Loma,33.993845,-117.523574
2374,Miramonte,36.68938,-119.047718
2375,Miranda,40.234722,-123.8225
2376,Mission Hills,34.261873,-118.458659
2377,Mission Viejo,33.6,-117.6711
2378,Moccasin,37.810833,-120.298889
2379,Modesto,37.674649,-121.011303
2380,Mojave,35.047767,-118.173475
2381,Mokelumne Hill,38.328918,-120.567705
2382,Mono Hot Springs,37.168,-119.2095
2383,Monrovia,34.143959,-118.001376
2384,Montague,41.724294,-122.463799
2385,Montara,37.542222,-122.515
2386,Montclair,34.073298,-117.698669
2387,Monte Rio,38.462668,-123.00447
2388,Montebello,34.013342,-118.112986
2389,Monterey,36.595642,-121.8848
2390,Monterey Park,34.053409,-118.127144
2391,Montgomery Creek,40.912378,-121.923313
2392,Montrose,34.211425,-118.230529
2393,Moorpark,34.285556,-118.881111
2394,Moraga,37.843653,-122.124185
2395,Moreno Valley,33.8858,-117.2211
2396,Morgan Hill,37.129171,-121.64636
2397,Morongo Valley,34.060646,-116.565641
2398,Morro Bay,35.37953,-120.844745
2399,Moss Beach,37.531039,-122.50683
2400,Moss Landing,36.804444,-121.785833
2401,Mount Aukum,38.55,-120.7304
2402,Mount Hamilton,37.316087,-121.639948
2403,Mount Hermon,37.051111,-122.0575
2404,Mount Laguna,32.872222,-116.4175
2405,Mount Shasta,41.317435,-122.324017
2406,Mount Wilson,34.226389,-118.065278
2407,Mountain Center,33.531667,-116.581954
2408,Mountain Pass,35.470278,-115.544167
2409,Mountain Ranch,38.220363,-120.548137
2410,Mountain View,37.41001,-122.051944
2411,Mt Baldy,34.218082,-117.580219
2412,Murphys,38.126896,-120.461772
2413,Murrieta,33.563071,-117.273838
2414,Myers Flat,40.194758,-123.822713
2415,Napa,38.328137,-122.305518
2416,National City,32.674916,-117.089747
2417,Navarro,39.065833,-123.443889
2418,Needles,34.782369,-114.587134
2419,Nelson,39.552222,-121.764444
2420,Nevada City,39.275395,-121.019634
2421,New Almaden,37.176111,-121.819722
2422,New Cuyama,34.996709,-119.823806
2423,Newark,37.536812,-122.031956
2424,Newberry Springs,34.885001,-116.746373
2425,Newbury Park,34.184167,-118.909722
2426,Newcastle,38.872467,-121.142616
2427,Newhall,34.379519,-118.523005
2428,Newman,37.317591,-121.025943
2429,Newport Beach,33.6398,-117.8643
2430,Newport Coast,33.596382,-117.855317
2431,Nicasio,38.054622,-122.696402
2432,Nice,39.122341,-122.842409
2433,Nicolaus,38.882726,-121.553043
2434,Niland,33.378373,-115.696455
2435,Nipomo,35.029806,-120.489413
2436,Nipton,35.46761,-115.481436
2437,Norco,33.94,-117.553333
2438,Norden,39.319566,-120.400876
2439,North Fork,37.212531,-119.514324
2440,North Highlands,38.68855,-121.374913
2441,North Hills,34.236636,-118.47582
2442,North Hollywood,34.16867,-118.371274
2443,North Palm Springs,33.900278,-116.527222
2444,North San Juan,39.354037,-121.13498
2445,Northridge,34.236743,-118.546595
2446,Norwalk,33.90564,-118.081767
2447,Novato,38.1163,-122.571416
2448,Nubieber,41.095833,-121.181944
2449,Nuevo,33.807712,-117.118704
2450,O Neals,37.086874,-119.745369
2451,Oak Park,34.136389,-118.773611
2452,Oak Run,40.68631,-122.040932
2453,Oak View,34.402021,-119.298168
2454,Oakdale,37.775323,-120.849474
2455,Oakhurst,37.347561,-119.644854
2456,Oakland,37.780595,-122.216587
2457,Oakley,37.994034,-121.703623
2458,Oakville,38.436944,-122.401111
2459,Obrien,40.812222,-122.323056
2460,Occidental,38.396911,-122.988194
2461,Oceano,35.10187,-120.608044
2462,Oceanside,33.1951,-117.3776
2463,Ocotillo,32.738611,-115.993333
2464,Ojai,34.44512,-119.256477
2465,Olancha,36.320833,-118.025556
2466,Old Station,40.62557,-121.458476
2467,Olema,38.040833,-122.786944
2468,Olivehurst,39.089483,-121.550059
2469,Olympic Valley,39.155556,-120.215
2470,Ontario,34.0631,-117.6197
2471,Onyx,35.713584,-118.190227
2472,Orange,33.7877,-117.8755
2473,Orange Cove,36.624283,-119.313502
2474,Orangevale,38.682384,-121.222902
2475,Oregon House,39.314388,-121.209229
2476,Orick,41.30724,-124.050319
2477,Orinda,37.878659,-122.172848
2478,Orland,39.744578,-122.157885
2479,Orleans,41.318092,-123.529564
2480,Oro Grande,34.617832,-117.332733
2481,Orosi,36.546368,-119.281522
2482,Oroville,39.532967,-121.578396
2483,Oxnard,34.214142,-119.174952
2484,Pacific Grove,36.616737,-121.921957
2485,Pacific Palisades,34.054097,-118.536874
2486,Pacifica,37.619559,-122.481607
2487,Pacoima,34.258081,-118.420692
2488,Paicines,36.49478,-121.032853
2489,Pala,33.377662,-117.071725
2490,Palermo,39.436148,-121.545389
2491,Palm Desert,33.7611,-116.3249
2492,Palm Springs,33.841406,-116.53466
2493,Palmdale,34.571483,-118.061306
2494,Palo Alto,37.444324,-122.149685
2495,Palo Cedro,40.576661,-122.239805
2496,Palo Verde,33.432778,-114.731389
2497,Palomar Mountain,33.322778,-116.877778
2498,Palos Verdes Peninsula,33.770094,-118.374763
2499,Panorama City,34.226158,-118.447009
2500,Paradise,39.746389,-121.636111
2501,Paramount,33.896867,-118.163152
2502,Parker Dam,34.297977,-114.155969
2503,Parlier,36.610265,-119.537482
2504,Pasadena,34.146762,-118.139119
2505,Paskenta,39.884722,-122.544722
2506,Paso Robles,35.635248,-120.670676
2507,Patterson,37.490592,-121.140732
2508,Patton,34.135833,-117.223056
2509,Pauma Valley,33.306285,-116.959552
2510,Paynes Creek,40.351415,-121.764952
2511,Pearblossom,34.491124,-117.902893
2512,Pebble Beach,36.590735,-121.942044
2513,Penn Valley,39.218778,-121.193519
2514,Penngrove,38.315948,-122.671772
2515,Penryn,38.856654,-121.179149
2516,Perris,33.797535,-117.280005
2517,Pescadero,37.206518,-122.364876
2518,Petaluma,38.240349,-122.677727
2519,Petrolia,40.300558,-124.251236
2520,Phelan,34.426111,-117.571389
2521,Phillipsville,40.209167,-123.784722
2522,Philo,39.120005,-123.538218
2523,Pico Rivera,33.98857,-118.088269
2524,Piedmont,37.8276,-122.2507
2525,Piedra,36.810278,-119.381111
2526,Piercy,39.966389,-123.794167
2527,Pilot Hill,38.826312,-121.029765
2528,Pine Grove,38.396783,-120.643713
2529,Pine Valley,32.835047,-116.512733
2530,Pinecrest,38.341062,-119.865195
2531,Pinole,37.996903,-122.287477
2532,Pinon Hills,34.442937,-117.640262
2533,Pioneer,38.460271,-120.531815
2534,Pioneertown,34.156667,-116.495278
2535,Piru,34.415278,-118.793056
2536,Pismo Beach,35.142778,-120.640278
2537,Pittsburg,38.016887,-121.908178
2538,Pixley,35.955286,-119.256427
2539,Placentia,33.881,-117.8553
2540,Placerville,38.719479,-120.804564
2541,Planada,37.290833,-120.3175
2542,Platina,40.316528,-122.918013
2543,Playa Del Rey,33.957745,-118.437314
2544,Pleasant Grove,38.787773,-121.507967
2545,Pleasant Hill,37.954002,-122.07371
2546,Pleasanton,37.665804,-121.8755
2547,Plymouth,38.48811,-120.870258
2548,Point Arena,38.915264,-123.660756
2549,Point Mugu Nawc,34.123432,-119.09931
2550,Point Reyes Station,38.064794,-122.81621
2551,Pollock Pines,38.745581,-120.585114
2552,Pomona,34.043268,-117.752086
2553,Pope Valley,38.678192,-122.472244
2554,Port Costa,38.046013,-122.186649
2555,Port Hueneme,34.162572,-119.197317
2556,Port Hueneme Cbc Base,34.16212,-119.206008
2557,Porter Ranch,34.274191,-118.541235
2558,Porterville,36.068636,-119.031549
2559,Portola,39.810883,-120.466858
2560,Portola Vally,37.378859,-122.208131
2561,Posey,35.813496,-118.664286
2562,Potrero,32.620477,-116.603748
2563,Potter Valley,39.329639,-123.104181
2564,Poway,32.975619,-117.040223
2565,Prather,36.993799,-119.526771
2566,Princeton,39.428313,-122.030181
2567,Proberta,40.081667,-122.169444
2568,Quincy,39.940504,-120.928493
2569,Rackerby,39.4059,-121.336192
2570,Rail Road Flat,38.343333,-120.511111
2571,Raisin City,36.598928,-119.903158
2572,Ramona,33.029349,-116.853548
2573,Ranchita,33.24055,-116.539121
2574,Rancho Cordova,38.601897,-121.289434
2575,Rancho Cucamonga,34.133922,-117.599149
2576,Rancho Mirage,33.764284,-116.422451
2577,Rancho Palos Verdes,33.787778,-118.357222
2578,Rancho Santa Fe,33.0231,-117.1996
2579,Rancho Santa Margarita,33.651822,-117.588388
2580,Randsburg,35.352176,-117.726396
2581,Ravendale,40.831705,-120.16001
2582,Raymond,37.27898,-119.876567
2583,Red Bluff,40.179535,-122.238281
2584,Red Mountain,35.372778,-117.633889
2585,Redcrest,40.406458,-123.94205
2586,Redding,40.560493,-122.411627
2587,Redlands,34.039659,-117.180352
2588,Redondo Beach,33.830656,-118.383221
2589,Redway,40.110081,-123.844194
2590,Redwood City,37.464661,-122.230406
2591,Redwood Estates,37.156389,-121.985556
2592,Redwood Valley,39.269446,-123.213289
2593,Reedley,36.604406,-119.437785
2594,Represa,38.688333,-121.447778
2595,Rescue,38.719353,-120.994526
2596,Reseda,34.200663,-118.539071
2597,Rialto,34.113155,-117.377133
2598,Richgrove,35.796667,-119.106944
2599,Richmond,37.940039,-122.36201
2600,Richvale,39.493889,-121.743611
2601,Ridgecrest,35.631376,-117.679733
2602,Rimforest,34.229722,-117.224167
2603,Rio Dell,40.495147,-124.104386
2604,Rio Linda,38.689311,-121.445152
2605,Rio Nido,38.521111,-122.975833
2606,Rio Oso,38.960998,-121.505305
2607,Rio Vista,38.163734,-121.701635
2608,Ripon,37.753286,-121.122909
2609,River Pines,38.5463,-120.743
2610,Riverbank,37.732809,-120.943019
2611,Riverdale,36.429525,-119.871953
2612,Riverside,33.9924,-117.369421
2613,Robbins,38.870278,-121.705278
2614,Rocklin,38.791898,-121.243406
2615,Rodeo,38.03069,-122.258139
2616,Rohnert Park,38.3269,-122.7061
2617,Rosamond,34.863117,-118.19636
2618,Rosemead,34.065767,-118.08529
2619,Roseville,38.734612,-121.233968
2620,Ross,37.9625,-122.553889
2621,Rough And Ready,39.228585,-121.150856
2622,Round Mountain,40.794167,-121.940833
2623,Rowland Heights,33.981777,-117.896946
2624,Rumsey,38.8762,-122.253738
2625,Running Springs,34.207778,-117.108333
2626,Rutherford,38.458611,-122.421389
2627,Ryde,38.238611,-121.559444
2628,Sacramento,38.5816,-121.4933
2629,Saint Helena,38.513776,-122.461921
2630,Salida,37.70713,-121.090484
2631,Salinas,36.667693,-121.659589
2632,Salton City,33.298611,-115.955278
2633,Salyer,40.89095,-123.547833
2634,Samoa,40.803712,-124.193571
2635,San Andreas,38.186732,-120.668703
2636,San Anselmo,37.984579,-122.571062
2637,San Ardo,35.985685,-120.861191
2638,San Bernardino,34.110521,-117.289753
2639,San Bruno,37.624742,-122.429021
2640,San Carlos,37.496859,-122.267356
2641,San Clemente,33.430809,-117.610139
2642,San Diego,32.71852,-117.159316
2643,San Dimas,34.102263,-117.81694
2644,San Fernando,34.287509,-118.435242
2645,San Francisco,37.775,-122.4183
2646,San Francisco,37.621944,-122.381944
2647,San Gabriel,34.115486,-118.085658
2648,San Geronimo,38.017155,-122.67784
2649,San Gregorio,37.325513,-122.355552
2650,San Jacinto,33.783889,-116.957778
2651,San Joaquin,36.605869,-120.188934
2652,San Jose,37.3894,-121.8868
2653,San Juan Bautista,36.849856,-121.532721
2654,San Juan Capistrano,33.511714,-117.657409
2655,San Leandro,37.720467,-122.158705
2656,San Lorenzo,37.678671,-122.129547
2657,San Lucas,36.128889,-121.019444
2658,San Luis Obispo,35.263453,-120.650933
2659,San Luis Rey,33.294367,-117.306403
2660,San Marcos,33.144386,-117.169716
2661,San Marino,34.120698,-118.111745
2662,San Martin,37.091118,-121.599901
2663,San Mateo,37.572271,-122.320262
2664,San Miguel,35.753209,-120.696532
2665,San Pablo,37.972374,-122.336929
2666,San Pedro,33.733894,-118.291425
2667,San Quentin,37.9428,-122.4894
2668,San Rafael,37.969144,-122.510502
2669,San Ramon,37.78,-121.976944
2670,San Simeon,35.666815,-121.144033
2671,San Ysidro,32.551944,-117.042222
2672,Sanger,36.7243,-119.547796
2673,Santa Ana,33.75016,-117.857665
2674,Santa Barbara,34.419668,-119.70782
2675,Santa Clara,37.34732,-121.954079
2676,Santa Clarita,34.459742,-118.488955
2677,Santa Cruz,36.982946,-122.043612
2678,Santa Fe Springs,33.946407,-118.083801
2679,Santa Margarita,35.341254,-120.3202
2680,Santa Maria,34.954538,-120.43245
2681,Santa Monica,34.017628,-118.490708
2682,Santa Paula,34.354718,-119.071328
2683,Santa Rita Park,37.0475,-120.594167
2684,Santa Rosa,38.443123,-122.751722
2685,Santa Ynez,34.623966,-120.071332
2686,Santa Ysabel,33.147579,-116.69635
2687,Santee,32.848636,-116.986154
2688,Saratoga,37.272871,-122.018238
2689,Sausalito,37.860147,-122.494555
2690,Scotia,40.454665,-124.039074
2691,Scott Bar,41.77364,-122.988183
2692,Scotts Valley,37.057841,-122.014961
2693,Seal Beach,33.760971,-118.08428
2694,Seaside,36.609208,-121.835724
2695,Sebastopol,38.391543,-122.838503
2696,Seeley,32.793056,-115.690278
2697,Seiad Valley,41.886589,-123.243762
2698,Selma,36.569524,-119.617026
2699,Sequoia National Park,36.573878,-118.772271
2700,Shafter,35.496994,-119.280075
2701,Shandon,35.651273,-120.372047
2702,Shasta,40.610896,-122.49685
2703,Shasta Lake,40.680262,-122.365395
2704,Shaver Lake,37.139695,-119.273031
2705,Sheep Ranch,38.209444,-120.463056
2706,Sheridan,38.99153,-121.362062
2707,Sherman Oaks,34.151407,-118.460325
2708,Shingle Springs,38.665616,-120.975925
2709,Shingletown,40.504959,-121.885668
2710,Shoshone,35.899239,-116.264476
2711,Sierra City,39.559248,-120.624135
2712,Sierra Madre,34.165101,-118.051916
2713,Sierraville,39.594294,-120.347789
2714,Signal Hill,33.8037,-118.1688
2715,Silverado,33.746111,-117.636111
2716,Simi Valley,34.2694,-118.7805
2717,Skyforest,34.235278,-117.178333
2718,Sloughhouse,38.507475,-121.094089
2719,Smartville,39.204305,-121.266716
2720,Smith River,41.936218,-124.166115
2721,Snelling,37.514359,-120.481615
2722,Soda Springs,39.338467,-120.465493
2723,Solana Beach,32.993739,-117.2598
2724,Soledad,36.41964,-121.324286
2725,Solvang,34.609931,-120.129286
2726,Somerset,38.607414,-120.666306
2727,Somes Bar,41.43304,-123.475928
2728,Somis,34.279753,-119.011537
2729,Sonoma,38.295659,-122.472843
2730,Sonora,37.995692,-120.338498
2731,Soquel,37.003525,-121.950255
2732,Soulsbyville,37.992794,-120.259892
2733,South Dos Palos,36.964444,-120.652222
2734,South El Monte,34.055676,-118.044381
2735,South Gate,33.94617,-118.201349
2736,South Lake Tahoe,38.916976,-119.986469
2737,South Pasadena,34.110939,-118.154696
2738,South San Francisco,37.65382,-122.4347
2739,Spreckels,36.621944,-121.645833
2740,Spring Valley,32.7447,-116.998
2741,Springville,36.136314,-118.796059
2742,Squaw Valley,36.707146,-119.181449
2743,Standard,37.984167,-120.381111
2744,Standish,40.350863,-120.406847
2745,Stanford,37.423573,-122.161867
2746,Stanton,33.803029,-117.994709
2747,Stevenson Ranch,34.381067,-118.582134
2748,Stevinson,37.32575,-120.869856
2749,Stewarts Point,38.651944,-123.398056
2750,Stinson Beach,37.901992,-122.639305
2751,Stirling City,39.907778,-121.526944
2752,Stockton,37.958,-121.2876
